<?xml version="1.0" encoding="UTF-8"?>
<settings>
<servers><server url="http://speedo.eltele.no/speedtest/upload.php" lat="69.9403" lon="23.3106" name="Alta" country="Norway" cc="NO" sponsor="Eltele AS" id="3433"  url2="http://speedtest.eltele.no/speedtest/upload.php" />
<server url="http://speedtest1.norilsk.mts.ru/speedtest/upload.php" lat="69.3298" lon="88.2236" name="Norilsk" country="Russian Federation" cc="RU" sponsor="Mobile TeleSystems OJSC" id="3867"  url2="http://speedtest2.norilsk.mts.ru/speedtest/upload.php" host="speedtest1.norilsk.mts.ru:8080" />
<server url="http://speedtest.murmansk.u-disk.ru/speedtest/upload.php" lat="68.9543" lon="33.1076" name="Murmansk" country="Russian Federation" cc="RU" sponsor="Rostelecom" id="3522"  url2="http://speedtest2.murmansk.u-disk.ru/speedtest/upload.php" host="speedtest.murmansk.u-disk.ru:8080" />
<server url="http://speedtest.mmsn.ru/speedtest/upload.php" lat="68.9543" lon="33.1076" name="Murmansk" country="Russian Federation" cc="RU" sponsor="JSC M2C" id="1521"  />
<server url="http://st1.teletoria.ru/speedtest/upload.php" lat="68.9543" lon="33.1076" name="Murmansk" country="Russian Federation" cc="RU" sponsor="ISP Teletoria" id="2342"  url2="http://st2.teletoria.ru/speedtest/upload.php" />
<server url="http://speedtest.oltv.ru/speedtest/upload.php" lat="68.1500" lon="33.2833" name="Olenegorsk" country="Russian Federation" cc="RU" sponsor="JSC RosTeleKom" id="1996"  url2="http://st.oltv.ru/speedtest/upload.php" />
<server url="http://speedtest.naryan-mar.u-disk.ru/speedtest/upload.php" lat="67.6333" lon="53.0500" name="Naryan-Mar" country="Russian Federation" cc="RU" sponsor="Rostelecom" id="4280"  url2="http://speedtest2.naryan-mar.u-disk.ru/speedtest/upload.php" host="speedtest.naryan-mar.u-disk.ru:8080" />
<server url="http://speedtest.signal.no/speedtest/upload.php" lat="67.2833" lon="14.3833" name="Bodø" country="Norway" cc="NO" sponsor="Signal Broadband AS" id="3308"  url2="http://monster.signal.no/speedtest/upload.php" host="speedtest.signal.no:8080" />
<server url="http://speedtest.salehard.u-disk.ru/speedtest/upload.php" lat="66.5333" lon="66.6000" name="Salekhard" country="Russian Federation" cc="RU" sponsor="Rostelecom" id="2601"  url2="http://speedtest2.salehard.u-disk.ru/speedtest/upload.php" host="speedtest.salehard.u-disk.ru:8080" />
<server url="http://speedtest.new-urengoy.u-disk.ru/speedtest/upload.php" lat="66.0833" lon="76.6833" name="Novy Urengoy" country="Russian Federation" cc="RU" sponsor="Rostelecom" id="3484"  url2="http://speedtest2.new-urengoy.u-disk.ru/speedtest/upload.php" host="speedtest.new-urengoy.u-disk.ru:8080" />
<server url="http://speedtest.migsv.ru/speedtest/upload.php" lat="66.0833" lon="76.6833" name="Novy Urengoy" country="Russian Federation" cc="RU" sponsor="TeleMig" id="2472"  url2="http://testinet.migsv.ru/speedtest/upload.php" />
<server url="http://test.usinsknet.ru/speedtest/upload.php" lat="66.0000" lon="57.5333" name="Usinsk" country="Russian Federation" cc="RU" sponsor="Swift Telecom" id="3693"  />
<server url="http://st.home-nadym.ru/speedtest/upload.php" lat="65.5333" lon="72.5167" name="Nadym" country="Russian Federation" cc="RU" sponsor="interService" id="3106"  url2="http://home-nadym.ru/speedtest/speedtest/upload.php" />
<server url="http://track.vks-express.ru/speedtest/upload.php" lat="65.5333" lon="72.5167" name="Nadym" country="Russian Federation" cc="RU" sponsor="VKS-Internet Ltd." id="3114"  url2="http://track.vks-express.ru/2/speedtest/upload.php" />
<server url="http://speedtest.netplaza.fi/speedtest/upload.php" lat="65.0167" lon="25.4667" name="Oulu" country="Finland" cc="FI" sponsor="Netplaza Oy" id="2138"  url2="http://speedtest2.netplaza.fi/speedtest/upload.php" />
<server url="http://speedtest.alaska.edu/speedtest/upload.php" lat="64.8378" lon="-147.7164" name="Fairbanks, AK" country="United States" cc="US" sponsor="University of Alaska" id="3191"  url2="http://speedtest2.alaska.edu/speedtest/upload.php" host="speedtest.alaska.edu:8080" />
<server url="http://speedtest.sevsk.29-region.ru/speedtest/upload.php" lat="64.5681" lon="39.8317" name="Severodvinsk" country="Russian Federation" cc="RU" sponsor="MTS" id="2146"  url2="http://speedtest1.sevsk.29-region.ru/speedtest/upload.php" />
<server url="http://speedtest.arhangelsk.u-disk.ru/speedtest/upload.php" lat="64.5333" lon="40.5333" name="Arkhangelsk" country="Russian Federation" cc="RU" sponsor="Rostelecom" id="2597"  url2="http://speedtest2.arhangelsk.u-disk.ru/speedtest/upload.php" host="speedtest.arhangelsk.u-disk.ru:8080" />
<server url="http://speedtest.tele.gl/speedtest/upload.php" lat="64.1750" lon="-51.7389" name="Nuuk" country="Greenland" cc="GL" sponsor="Tele Greenland A/S" id="1066"  />
<server url="http://speedtest1.nova.is/speedtest/upload.aspx" lat="64.1333" lon="-21.9333" name="Reykjavik" country="Iceland" cc="IS" sponsor="Nova" id="3684"  host="speedtest1.nova.is:8080" />
<server url="http://speedtest.c.is/speedtest/upload.php" lat="64.1333" lon="-21.9333" name="Reykjavík" country="Iceland" cc="IS" sponsor="Vodafone" id="4141"  url2="http://speedtest2.c.is/speedtest/upload.php" host="speedtest.c.is:8080" />
<server url="http://hradi.vortex.is/speedtest/upload.aspx" lat="64.1333" lon="-21.9333" name="Reykjavik" country="Iceland" cc="IS" sponsor="Vortex Inc" id="1092"  />
<server url="http://speedtest1.datacell.com/speedtest/speedtest/upload.php" lat="64.1333" lon="-21.9333" name="Reykjavík" country="Iceland" cc="IS" sponsor="DataCell ehf" id="3250"  url2="http://speedtest2.datacell.com/speedtest/speedtest/upload.php" />
<server url="http://speedtest.ppo.fi/speedtest/upload.php" lat="64.0750" lon="24.5333" name="Ylivieska" country="Finland" cc="FI" sponsor="PPO-Yhtiöt Oy" id="1726"  />
<server url="http://speedtest.nwc.is/speedtest/upload.php" lat="64.0167" lon="-22.5667" name="Keflavik" country="Iceland" cc="IS" sponsor="Network Communications" id="1038"  />
<server url="http://speedtest.centrlan.net/speedtest/upload.php" lat="63.5667" lon="53.7000" name="Ukhta" country="Russian Federation" cc="RU" sponsor="Maxima - Centr.LAN" id="2130"  url2="http://195.22.104.12/speedtest/upload.php" host="speedtest.centrlan.net:8080" />
<server url="http://speedtest.itsjefen.no/speedtest/upload.php" lat="63.4297" lon="10.3933" name="Trondheim" country="Norway" cc="NO" sponsor="ITsjefen AS" id="1252"  url2="http://speedtest.vdc.no/speedtest/upload.php" />
<server url="http://speedtest.noyabrsk.u-disk.ru/speedtest/upload.php" lat="63.2000" lon="75.4500" name="Noyabrsk" country="Russian Federation" cc="RU" sponsor="Rostelecom" id="4281"  url2="http://speedtest2.noyabrsk.u-disk.ru/speedtest/upload.php" host="speedtest.noyabrsk.u-disk.ru:8080" />
<server url="http://speed.global-x.ru/speedtest/upload.php" lat="63.2000" lon="75.4500" name="Noyabrsk" country="Russian Federation" cc="RU" sponsor="Sever-Svyaz" id="2017"  url2="http://speedtest.global-x.ru/speedtest/upload.php" />
<server url="http://speedtest.anvianet.fi/speedtest/upload.php" lat="63.1000" lon="21.6000" name="Vaasa" country="Finland" cc="FI" sponsor="Anvia Oyj" id="3113"  url2="http://speedtest2.anvianet.fi/speedtest/upload.php" />
<server url="http://speedtest01.sucom.no/speedtest/upload.php" lat="62.6128" lon="8.6342" name="Sunndalsora" country="Norway" cc="NO" sponsor="SuCom AS" id="4197"  url2="http://speedtest02.sucom.no/speedtest/upload.php" />
<server url="http://speedtest2.telekarelia.fi/speedtest/upload.php" lat="62.6000" lon="29.7667" name="Joensuu" country="Finland" cc="FI" sponsor="Telekarelia Oy" id="1856"  url2="http://speedtest.telekarelia.fi/speedtest/upload.php" />
<server url="http://speed2.stayon.no/speedtest/upload.php" lat="62.4778" lon="6.1903" name="Alesund" country="Norway" cc="NO" sponsor="StayOn" id="4039"  url2="http://speed3.stayon.no/speedtest/upload.php" />
<server url="http://yk-speedtest01.ssimicro.com/speedtest/upload.php" lat="62.4422" lon="-114.3975" name="Yellowknife, NT" country="Canada" cc="CA" sponsor="SSI Micro" id="1843"  url2="http://yk-speedtest02.ssimicro.com/speedtest/upload.php" host="yk-speedtest01.ssimicro.com:8080" />
<server url="http://speedtest.seltimil.com/speedtest/upload.php" lat="62.2333" lon="25.7333" name="Jyvaskyla" country="Finland" cc="FI" sponsor="Seltimil Oy" id="3038"  url2="http://speedtest.seltimil.net/speedtest/upload.php" host="speedtest.seltimil.com:8080" />
<server url="http://speedtest.nyagan.net/speedtest/upload.php" lat="62.1333" lon="65.3833" name="Nyagan" country="Russian Federation" cc="RU" sponsor="Nyagan" id="1809"  url2="http://testspeed.nyagan.net/speedtest/upload.php" />
<server url="http://www.exp-net.ru/speedtest/speedtest/upload.php" lat="62.0417" lon="129.7465" name="Yakutsk" country="Russian Federation" cc="RU" sponsor="ООО Экспресс-Сеть" id="3541"  url2="http://www.exp-net.me/speedtest/speedtest/upload.php" host="www.exp-net.ru:8080" />
<server url="http://speedtest.yakutsk.u-disk.ru/speedtest/upload.php" lat="62.0333" lon="129.7333" name="Yakutsk" country="Russia" cc="RU" sponsor="Rostelecom" id="4480"  url2="http://speedtest2.yakutsk.u-disk.ru/speedtest/upload.php" host="speedtest.yakutsk.u-disk.ru:8080" />
<server url="http://188.244.139.106/speedtest/upload.php" lat="62.0333" lon="129.7333" name="Yakutsk" country="Russian Federation" cc="RU" sponsor="CJSC Baikal TransTeleCom" id="4214"  url2="http://188.244.139.105/speedtest/upload.php" />
<server url="http://www.internet.fo/speedtest/speedtest/upload.php" lat="62.0000" lon="-6.7833" name="Torshavn" country="Faroe Islands" cc="FO" sponsor="Faroese Telecom" id="462"  url2="http://internet.fo/speedtest/speedtest/upload.php" host="www.internet.fo:8080" />
<server url="http://speedtest.petrozavodsk.u-disk.ru/speedtest/upload.php" lat="61.7833" lon="34.3333" name="Petrozavodsk" country="Russian Federation" cc="RU" sponsor="Rostelecom" id="2621"  url2="http://speedtest2.petrozavodsk.u-disk.ru/speedtest/upload.php" host="speedtest.petrozavodsk.u-disk.ru:8080" />
<server url="http://speedtest-ptz.citylink-rk.ru/speedtest/upload.php" lat="61.7833" lon="34.3333" name="Petrozavodsk" country="Russian Federation" cc="RU" sponsor="CityLink Ltd" id="1712"  />
<server url="http://speedtest.komi.u-disk.ru/speedtest/upload.php" lat="61.6667" lon="50.8167" name="Syktyvkar" country="Russian Federation" cc="RU" sponsor="Rostelecom" id="2622"  url2="http://speedtest2.komi.u-disk.ru/speedtest/upload.php" host="speedtest.komi.u-disk.ru:8080" />
<server url="http://speedtest2.ttksever.ru/speedtest/upload.php" lat="61.6667" lon="50.8167" name="Syktyvkar" country="Russian Federation" cc="RU" sponsor="CJSC &quot;SeverTransTeleCom&quot;" id="3173"  url2="http://speedtest3.ttksever.ru/speedtest/upload.php" host="speedtest2.ttksever.ru:8080" />
<server url="http://speedtest.tamico.com/speedtest/upload.php" lat="61.5000" lon="23.7667" name="Tampere" country="Finland" cc="FI" sponsor="Tamico Oy" id="1698"  url2="http://31.47.64.74/speedtest/upload.php" />
<server url="http://speedtest.enivest.net/speedtest/upload.php" lat="61.4431" lon="5.9036" name="Forde" country="Norway" cc="NO" sponsor="Enivest AS" id="899"  url2="http://217.149.113.142/speedtest/upload.php" host="speedtest.enivest.net:8080" />
<server url="http://speedtest.mtaonline.net/speedtest/upload.asp" lat="61.3214" lon="-149.5678" name="Eagle River, AK" country="United States" cc="US" sponsor="MTA Communications" id="3571"  url2="http://speedtest1.mtaonline.net/speedtest/upload.asp" />
<server url="http://speedtest.isurgut.ru/speedtest/upload.php" lat="61.2667" lon="73.4000" name="Surgut" country="Russian Federation" cc="RU" sponsor="OJSC Rostelecom" id="3258"  url2="http://speedtest.wsnet.ru/speedtest/upload.php" />
<server url="http://speedtest.sg.metro-set.ru/speedtest/upload.php" lat="61.2667" lon="73.4000" name="Surgut" country="Russian Federation" cc="RU" sponsor="METROSET" id="2313"  />
<server url="http://speedtest.ugratel.ru/speedtest/upload.php" lat="61.2667" lon="73.4000" name="Surgut" country="Russian Federation" cc="RU" sponsor="Ugratel" id="1929"  url2="http://speedtest.s86.ru/speedtest/upload.php" />
<server url="http://speedtest.sfj.no/speedtest/upload.php" lat="61.2308" lon="6.7897" name="Leikanger" country="Norway" cc="NO" sponsor="Sogn og Fjordane" id="981"  url2="http://93.94.14.6/speedtest/upload.php" />
<server url="http://speedtest.anc.acsalaska.net/speedtest/upload.php" lat="61.2183" lon="-149.8991" name="Anchorage, AK" country="United States" cc="US" sponsor="Alaska Communications" id="980"  host="speedtest.anc.acsalaska.net:8080" />
<server url="http://speedtest.gci.net/speedtest/upload.php" lat="61.2183" lon="-149.8991" name="Anchorage, AK" country="United States" cc="US" sponsor="GCI" id="1555"  url2="http://209.165.131.125/speedtest/upload.php" host="speedtest.gci.net:8080" />
<server url="http://speedtest.attalaska.net/speedtest/upload.php" lat="61.2183" lon="-149.8991" name="Anchorage, AK" country="United States" cc="US" sponsor="AT&amp;T Alascom" id="898"  />
<server url="http://speedtest.cvinternet.net/speedtest/upload.php" lat="61.1308" lon="-146.3483" name="Valdez, AK" country="United States" cc="US" sponsor="Copper Valley Internet" id="1409"  url2="http://209.161.164.6/speedtest/upload.php" />
<server url="http://speedtest1.nefteyugansk.comstar-r.ru/speedtest/upload.php" lat="61.0833" lon="72.7000" name="Nefteyugansk" country="Russian Federation" cc="RU" sponsor="MTS" id="2062"  url2="http://speedtest2.nefteyugansk.comstar-r.ru/speedtest/upload.php" />
<server url="http://speedtest.aina.net/speedtest/upload.php" lat="61.0000" lon="24.4667" name="Hameenlinna" country="Finland" cc="FI" sponsor="AinaCom Oy" id="4113"  url2="http://hml-speedtest.aina.net/speedtest/upload.php" host="speedtest.aina.net:8080" />
<server url="http://speedtest.hmao.u-disk.ru/speedtest/upload.php" lat="61.0000" lon="69.0000" name="Khanty-Mansiysk" country="Russian Federation" cc="RU" sponsor="Rostelecom" id="3524"  url2="http://speedtest2.hmao.u-disk.ru/speedtest/upload.php" host="speedtest.hmao.u-disk.ru:8080" />
<server url="http://speedtest.pride-net.ru/speedtest/upload.php" lat="60.9333" lon="76.5333" name="Nizhnevartovsk" country="Russian Federation" cc="RU" sponsor="Pride" id="2799"  url2="http://speedtest.nv-net.ru/speedtest/upload.php" />
<server url="http://speedtest3.sib.comstar-r.ru/speedtest/upload.php" lat="60.9333" lon="76.5333" name="Nizhnevartovsk" country="Russian Federation" cc="RU" sponsor="MTS" id="2063"  url2="http://speedtest4.sib.comstar-r.ru/speedtest/upload.php" />
<server url="http://speedtest1.laitilanpuhelin.fi/speedtest/upload.php" lat="60.8792" lon="21.6931" name="Laitila" country="Finnland" cc="FN" sponsor="Laitilan Puhelin Osk" id="3447"  url2="http://speedtest2.laitilanpuhelin.fi/speedtest/upload.php" host="speedtest1.laitilanpuhelin.fi:8080" />
<server url="http://wh-netspeed.nwtel.ca/speedtest/upload.php" lat="60.7167" lon="-135.0500" name="Whitehorse, YT" country="Canada" cc="CA" sponsor="Northwestel Inc." id="4400"  url2="http://wh2-netspeed.nwtel.ca/speedtest/upload.php" />
<server url="http://speedtest.woima.fi/speedtest/upload.php" lat="60.4500" lon="22.2667" name="Turku" country="Finland" cc="FI" sponsor="Woima Hosting Oy" id="1303"  />
<server url="http://speedtest.dataoppdrag.no/speedtest/upload.php" lat="60.3894" lon="5.3300" name="Bergen" country="Norway" cc="NO" sponsor="DataOppdrag AS" id="2301"  url2="http://speedtest2.dataoppdrag.no/speedtest/upload.php" host="speedtest.dataoppdrag.no:8080" />
<server url="http://speedtest.academica.fi/speedtest/upload.php" lat="60.2056" lon="24.6556" name="Espoo" country="Finland" cc="FI" sponsor="Academica Oy" id="1646"  url2="http://87.108.66.253/speedtest/upload.php" />
<server url="http://speedtest1.s.dnaip.fi/mini/speedtest/upload.php" lat="60.1708" lon="24.9375" name="Helsinki" country="Finland" cc="FI" sponsor="DNA Oy" id="4427"  url2="http://speedtest2.s.dnaip.fi/mini/speedtest/upload.php" host="speedtest1.s.dnaip.fi:8080" />
<server url="http://speedtest.pit.hel.nebula.fi/speedtest/upload.php" lat="60.1708" lon="24.9375" name="Helsinki" country="Finland" cc="FI" sponsor="Nebula Oy" id="864"  url2="http://188.117.57.252/speedtest/upload.php" />
<server url="http://speedtest.romm.no/speedtest/upload.php" lat="60.1500" lon="11.1833" name="Jessheim" country="Norway" cc="NO" sponsor="Romm AS" id="943"  url2="http://141.0.128.61/speedtest/upload.php" />
<server url="http://speedtest.alcom.ax/speedtest/upload.php" lat="60.1000" lon="19.9333" name="Mariehamn" country="Finland" cc="FI" sponsor="Alcom" id="1361"  url2="http://194.112.10.130/speedtest/upload.php" />
<server url="http://speedtest.hafslundtelekom.net/speedtest/upload.php" lat="59.9494" lon="10.7564" name="Oslo" country="Norway" cc="NO" sponsor="Kvantel" id="952"  url2="http://77.88.99.74/speedtest/upload.php" host="speedtest.hafslundtelekom.net:8080" />
<server url="http://speedtest1.telenor.net/mini/speedtest/upload.php" lat="59.9494" lon="10.7564" name="Oslo" country="Norway" cc="NO" sponsor="Telenor Norge AS" id="3672"  host="speedtest1.telenor.net:8080" />
<server url="http://speed1.blix.com/speedtest/upload.php" lat="59.9494" lon="10.7564" name="Oslo" country="Norway" cc="NO" sponsor="Blix Solutions AS" id="3378"  url2="http://speed2.blix.com/speedtest/upload.php" host="speed1.blix.com:8080" />
<server url="http://speedtest.ign.as/speedtest/upload.php" lat="59.9494" lon="10.7564" name="Oslo" country="Norway" cc="NO" sponsor="Infragreen AS" id="4179"  url2="http://speedtest2.ign.as/speedtest/upload.php" host="speedtest.ign.as:8080" />
<server url="http://speedtest.megafonnw.ru/upload.php" lat="59.9333" lon="30.3333" name="Saint Petersburg" country="Russian Federation" cc="RU" sponsor="OJSC MegaFon (North-West)" id="1634"  host="speedtest.megafonnw.ru:8080" />
<server url="http://speedtest.peterburg.u-disk.ru/speedtest/upload.php" lat="59.9333" lon="30.3333" name="Saint Petersburg" country="Russian Federation" cc="RU" sponsor="Rostelecom" id="2599"  url2="http://speedtest2.peterburg.u-disk.ru/speedtest/upload.php" host="speedtest.peterburg.u-disk.ru:8080" />
<server url="http://speedtest.spbmts.ru/speedtest/upload.php" lat="59.9333" lon="30.3333" name="Saint Petersburg" country="Russian Federation" cc="RU" sponsor="MTS OJSC" id="4247"  url2="http://217.66.145.40/speedtest/upload.php" host="speedtest.spbmts.ru:8080" />
<server url="http://speedtest.spb.gldn.net/speedtest/upload.php" lat="59.9333" lon="30.3333" name="Saint Petersburg" country="Russian Federation" cc="RU" sponsor="Vimpelcom ltd" id="4139"  url2="http://speedtest-net.eltel.net/speedtest/upload.php" host="speedtest.spb.gldn.net:8080" />
<server url="http://speedtest.spb.ertelecom.ru/speedtest/upload.php" lat="59.9333" lon="30.3333" name="Saint Petersburg" country="Russian Federation" cc="RU" sponsor="DOM.RU" id="2690"  url2="http://st.spb.ertelecom.ru/speedtest/upload.php" />
<server url="http://speedtest.chtp.net/speedtest/upload.php" lat="59.9333" lon="30.3333" name="Saint Petersburg" country="Russian Federation" cc="RU" sponsor="Chaika- Telecom Peterburg LTD" id="2801"  onmap="0" url2="http://speedtest2.chtp.net/speedtest/upload.php" />
<server url="http://speedtest.ptspb.net/speedtest/upload.php" lat="59.9333" lon="30.3333" name="Saint Petersburg" country="Russian Federation" cc="RU" sponsor="ITSP Prometey" id="4231"  onmap="0" url2="http://speedtest1.ptspb.net/speedtest/upload.php" />
<server url="http://speedtest.vo47.ru/speedtest/upload.php" lat="59.9167" lon="32.3500" name="Volkhov" country="Russian Federation" cc="RU" sponsor="Volkhov-Online Ltd." id="2086"  url2="http://testspeed.vo47.ru/speedtest/upload.php" />
<server url="http://speedtest.sbor.net/speedtest/upload.php" lat="59.8897" lon="29.0856" name="Sosnovy Bor" country="Russian Federation" cc="RU" sponsor="LLC &quot;InfoCentre&quot;" id="2686"  url2="http://speedtest1.sbor.net/speedtest/upload.php" />
<server url="http://speedtest.link-spb.ru/speedtest/upload.php" lat="59.8833" lon="30.9865" name="Kirovsk" country="Russian Federation" cc="RU" sponsor="Link" id="3866"  url2="http://speedtest2.link-spb.ru/speedtest/upload.php" />
<server url="http://www.webmax.su/speedtest/upload.php" lat="59.8833" lon="30.9865" name="Kirovsk" country="Russian Federation" cc="RU" sponsor="WebMAX ltd." id="2193"  url2="http://webmax.su/speedtest/upload.php" />
<server url="http://speedtest.tinconet.ru/speedtest/upload.php" lat="59.7333" lon="30.3833" name="Pushkin" country="Russian Federation" cc="RU" sponsor="TincoNet" id="2376"  url2="http://st.tinconet.ru/speedtest/upload.php" />
<server url="http://speedtest.gtn.ru/speedtest/upload.php" lat="59.5667" lon="30.1333" name="Gatchina" country="Russian Federation" cc="RU" sponsor="Astra-Oreol" id="2123"  url2="http://speedtest-gtn.it-region.ru/speedtest/upload.php" />
<server url="http://speedtest.gatchina.ru/speedtest/upload.php" lat="59.5667" lon="30.1333" name="Gatchina" country="Russian Federation" cc="RU" sponsor="Gatchina-Online" id="2113"  url2="http://speedtest2.gatchina.ru/speedtest/upload.php" />
<server url="http://speedtest.magadan.u-disk.ru/speedtest/upload.php" lat="59.5500" lon="150.8000" name="Magadan" country="Russian Federation" cc="RU" sponsor="Rostelecom" id="3125"  url2="http://speedtest2.magadan.u-disk.ru/speedtest/upload.php" host="speedtest.magadan.u-disk.ru:8080" />
<server url="http://speedtest1.teknikbyran.com/sp/speedtest/upload.php" lat="59.4833" lon="18.3000" name="Akersberga" country="Sweden" cc="SE" sponsor="Teknikbyran i Sverige AB" id="4425"  url2="http://speedtest2.teknikbyran.com/sp/speedtest/upload.php" host="speedtest1.teknikbyran.com:8080" />
<server url="http://speed.kirishi.ru/speedtest/upload.php" lat="59.4500" lon="32.0000" name="Kirishi" country="Russian Federation" cc="RU" sponsor="ООО ТК &quot;ТОР&quot;" id="2071"  url2="http://www.speed.kirishi.ru/speedtest/upload.php" />
<server url="http://speedtest1.starman.ee/speedtest/upload.php" lat="59.4372" lon="24.7453" name="Tallinn" country="Estonia" cc="EE" sponsor="Starman AS" id="3979"  url2="http://speedtest2.starman.ee/speedtest/upload.php" host="speedtest1.starman.ee:8080" />
<server url="http://speedtest.elisa.ee/speedtest/upload.php" lat="59.4339" lon="24.7549" name="Tallinn" country="Estonia" cc="EE" sponsor="Elisa" id="2610"  url2="http://speedtest.manonet.ee/speedtest/upload.php" host="speedtest.elisa.ee:8080" />
<server url="http://kiirusetest.emt.ee/speedtest/upload.php" lat="59.4339" lon="24.7549" name="Tallinn" country="Estonia" cc="EE" sponsor="AS EMT" id="4034"  url2="http://kiirusetest1.emt.ee/speedtest/upload.php" host="kiirusetest.emt.ee:8080" />
<server url="http://speed.fiber.ee/speedtest/upload.php" lat="59.4339" lon="24.7549" name="Tallinn" country="Estonia" cc="EE" sponsor="Compic OU" id="3207"  url2="http://speed2.fiber.ee/speedtest/upload.php" host="speed.fiber.ee:8080" />
<server url="http://sidur.tele2.ee/speedtest/upload.php" lat="59.4339" lon="24.7549" name="Tallinn" country="Estonia" cc="EE" sponsor="Tele2 Eesti" id="3606"  url2="http://pidur.tele2.ee/speedtest/upload.php" />
<server url="http://kiirustest.elion.ee/speedtest/upload.php" lat="59.4339" lon="24.7549" name="Tallinn" country="Estonia" cc="EE" sponsor="Elion Enterprises Limited" id="1322"  url2="http://194.126.108.76/speedtest/upload.php" />
<server url="http://sp1.king-online.ru/speedtest/upload.php" lat="59.3667" lon="28.6000" name="Kingisepp" country="Russia" cc="RU" sponsor="King-Online Ltd." id="4494"  url2="http://sp2.king-online.ru/speedtest/upload.php" host="sp1.king-online.ru:8080" />
<server url="http://speedtest.ruslantk.ru/speedtest/upload.php" lat="59.3667" lon="28.6000" name="Kingisepp" country="Russian Federation" cc="RU" sponsor="RuslanTK" id="2120"  url2="http://speedtest-king.it-region.ru/speedtest/upload.php" />
<server url="http://speedtest01.kustbandet.com/mini/speedtest/upload.php" lat="59.3646" lon="18.1325" name="Lidingö" country="Sweden" cc="SE" sponsor="Kustbandet AB" id="2980"  url2="http://speedtest02.kustbandet.com/mini/speedtest/upload.php" />
<server url="http://speedtest.nanogroup.se/speedtest/upload.php" lat="59.3500" lon="18.0000" name="Solna" country="Sweden" cc="SE" sponsor="Nano IT Data Centers AB" id="1944"  url2="http://speedtest2.nanogroup.se/speedtest/upload.php" />
<server url="http://kst5-speedtest-1.tele2.net/mini/speedtest/upload.php" lat="59.3294" lon="18.0686" name="Stockholm" country="Sweden" cc="SE" sponsor="Tele2" id="4458"  url2="http://kst5-speedtest-1b.tele2.net/mini/speedtest/upload.php" host="kst5-speedtest-1.tele2.net:8080" />
<server url="http://speedtest.spacedump.net/speedtest/upload.php" lat="59.3294" lon="18.0686" name="Stockholm" country="Sweden" cc="SE" sponsor="SpaceDump IT AB" id="2229"  url2="http://speedtest2.spacedump.net/speedtest/upload.php" />
<server url="http://speedtest.vologda.u-disk.ru/speedtest/upload.php" lat="59.2167" lon="39.9000" name="Vologda" country="Russian Federation" cc="RU" sponsor="Rostelecom" id="2596"  url2="http://speedtest2.vologda.u-disk.ru/speedtest/upload.php" host="speedtest.vologda.u-disk.ru:8080" />
<server url="http://speedtest1.vologda.comstar-r.ru/speedtest/upload.php" lat="59.2167" lon="39.9000" name="Vologda" country="Russian Federation" cc="RU" sponsor="MTS" id="1916"  />
<server url="http://speed.luglink.net/speedtest/upload.php" lat="58.7333" lon="29.8500" name="Luga" country="Russian Federation" cc="RU" sponsor="MAOUDOD" id="3445"  url2="http://speed2.luglink.net/speedtest/upload.php" />
<server url="http://speedtest1.orbita-nt.ru/speedtest/upload.php" lat="58.6208" lon="59.8478" name="Nizhnyaya Tura" country="Russian Federation" cc="RU" sponsor="Orbita.Ltd" id="3510"  url2="http://speedtest2.orbita-nt.ru/speedtest/upload.php" />
<server url="http://speedtest.kirov.u-disk.ru/speedtest/upload.php" lat="58.6000" lon="49.6500" name="Kirov" country="Russian Federation" cc="RU" sponsor="Rostelecom" id="3508"  url2="http://speedtest2.kirov.u-disk.ru/speedtest/upload.php" host="speedtest.kirov.u-disk.ru:8080" />
<server url="http://speedtest.kirov.ertelecom.ru/speedtest/upload.php" lat="58.6000" lon="49.6500" name="Kirov" country="Russian Federation" cc="RU" sponsor="DOM.RU" id="2702"  url2="http://st.kirov.ertelecom.ru/speedtest/upload.php" />
<server url="http://speedtest.vnov.comstar-r.ru/speedtest/upload.php" lat="58.5500" lon="31.2833" name="Velikiy Novgorod" country="Russian Federation" cc="RU" sponsor="MTS" id="1911"  url2="http://speedtest2.vnov.comstar-r.ru/speedtest/upload.php" />
<server url="http://speedtest.kostroma.u-disk.ru/speedtest/upload.php" lat="58.5500" lon="43.6830" name="Kostroma" country="Russian Federation" cc="Ru" sponsor="Rostelecom" id="3261"  url2="http://speedtest2.kostroma.u-disk.ru/speedtest/upload.php" host="speedtest.kostroma.u-disk.ru:8080" />
<server url="http://speedtest.v.novgorod.u-disk.ru/speedtest/upload.php" lat="58.5333" lon="31.2667" name="Veliky Novgorod" country="Russian Federation" cc="RU" sponsor="Rostelecom" id="3540"  url2="http://speedtest2.v.novgorod.u-disk.ru/speedtest/upload.php" host="speedtest.v.novgorod.u-disk.ru:8080" />
<server url="http://speedtest1.sib.comstar-r.ru/speedtest/upload.php" lat="58.1953" lon="68.2581" name="Tobolsk" country="Russian Federation" cc="RU" sponsor="MTS" id="2060"  url2="http://speedtest2.sib.comstar-r.ru/speedtest/upload.php" />
<server url="http://speedtest1.psu.ru/speedtest/upload.php" lat="58.0000" lon="56.3167" name="Perm" country="Russian Federation" cc="RU" sponsor="Perm State University" id="3320"  url2="http://speedtest2.psu.ru/speedtest/upload.php" host="speedtest1.psu.ru:8080" />
<server url="http://www2.permonline.ru/speedtest/speedtest/upload.php" lat="58.0000" lon="56.3167" name="Perm" country="Russian Federation" cc="RU" sponsor="Rostelecom" id="975"  url2="http://base.permonline.ru/speedtest/speedtest/upload.php" />
<server url="http://speedtest.perm.ertelecom.ru/speedtest/upload.php" lat="58.0000" lon="56.3167" name="Perm" country="Russian Federation" cc="RU" sponsor="DOM.RU" id="2660"  url2="http://st.perm.ertelecom.ru/speedtest/upload.php" />
<server url="http://ksilim.ru/mini/speedtest/upload.php" lat="58.0000" lon="102.6667" name="Ust-ilimsk" country="Russian Federation" cc="RU" sponsor="LLC &quot;KKS&quot;" id="3333"  url2="http://www.ksilim.ru/mini/speedtest/upload.php" />
<server url="http://speedtest.ilim-telecom.ru/speedtest/upload.php" lat="58.0000" lon="102.6667" name="Ust-Ilimsk" country="Russian Federation" cc="RU" sponsor="Ilim-Telecom" id="3379"  url2="http://speedtest.ilim-telecom.ru/speedtest/upload2.php" />
<server url="http://speedtest.setitagila.ru/speedtest/upload.php" lat="57.9167" lon="59.9667" name="Nizhnii Tagil" country="Russian Federation" cc="RU" sponsor="SetiTagila" id="1886"  url2="http://speedtest2.setitagila.ru/speedtest/upload.php" />
<server url="http://speedtest.pskov.u-disk.ru/speedtest/upload.php" lat="57.8167" lon="28.3333" name="Pskov" country="Russian Federation" cc="RU" sponsor="Rostelecom" id="3526"  url2="http://speedtest2.pskov.u-disk.ru/speedtest/upload.php" host="speedtest.pskov.u-disk.ru:8080" />
<server url="http://www.pskovline.ru/speedtest/speedtest/upload.php" lat="57.8167" lon="28.3333" name="Pskov" country="Russian Federation" cc="RU" sponsor="Pskovline LTD" id="1210"  host="www.pskovline.ru:8080" />
<server url="http://speedtest1.ttksever.ru/speedtest/upload.php" lat="57.6167" lon="39.8500" name="Yaroslavl" country="Russian Federation" cc="RU" sponsor="CJSC TransTeleCom" id="3088"  url2="http://speedtest.ttksever.ru/speedtest/upload.php" host="speedtest1.ttksever.ru:8080" />
<server url="http://speedtest.yaroslavl.u-disk.ru/speedtest/upload.php" lat="57.6167" lon="39.8500" name="Yaroslavl" country="Russian Federation" cc="RU" sponsor="Rostelecom" id="2620"  url2="http://speedtest2.yaroslavl.u-disk.ru/speedtest/upload.php" host="speedtest.yaroslavl.u-disk.ru:8080" />
<server url="http://st1.yar-tt.ru/speedtest/upload.php" lat="57.6167" lon="39.8500" name="Yaroslavl" country="Russian Federation" cc="RU" sponsor="CJSC YarTranzitTelecom" id="2772"  url2="http://st2.yar-tt.ru/speedtest/upload.php" />
<server url="http://speedtest.yar.ertelecom.ru/speedtest/upload.php" lat="57.6167" lon="39.8500" name="Yaroslavl" country="Russian Federation" cc="RU" sponsor="JSC &quot;ER-Telecom Holding&quot;" id="2666"  url2="http://st.yar.ertelecom.ru/speedtest/upload.php" />
<server url="http://st1.tensortelecom.ru/speedtest/upload.php" lat="57.6167" lon="39.8500" name="Yaroslavl" country="Russian Federation" cc="RU" sponsor="MTS" id="1796"  />
<server url="http://www.shlab.se/speed/speedtest/upload.php" lat="57.5333" lon="13.3500" name="Limmared" country="Sweden" cc="SE" sponsor="Satellithuset i limmared ab" id="3393"  url2="http://www.mikrotik.se/speed/speedtest/upload.php" />
<server url="http://test1.ilink.lv/speedtest/upload.php" lat="57.3833" lon="21.5500" name="Ventspils" country="Latvia" cc="LV" sponsor="iLink" id="4173"  url2="http://test2.ilink.lv/speedtest/upload.php" host="test1.ilink.lv:8080" />
<server url="http://194.105.179.1/speedtest/upload.asp" lat="57.1526" lon="-2.1100" name="Aberdeen" country="Great Britain" cc="GB" sponsor="Internet For Business Ltd" id="1377"  url2="http://speedtest.ifb.net/speedtest/upload.asp" host="194.105.179.1:8080" />
<server url="http://mc.lundbergsit.se:81/mini/speedtest/upload.php" lat="57.1500" lon="18.3167" name="Havdhem" country="Sweden" cc="SE" sponsor="" id="4040"  host="mc.lundbergsit.se:8080" />
<server url="http://speedtest.oborona.net/speedtest/upload.php" lat="57.1500" lon="65.5333" name="Tyumen" country="Russian Federation" cc="RU" sponsor="Delta Telesystems" id="988"  host="speedtest.oborona.net:8080" />
<server url="http://speedtest.ttknet.ru/speedtest/upload.php" lat="57.1500" lon="65.5333" name="Tyumen" country="Russian Federation" cc="RU" sponsor="Rostelecom" id="2752"  url2="http://tumen.ttknet.ru/speedtest/upload.php" />
<server url="http://speedtest.tmn.ertelecom.ru/speedtest/upload.php" lat="57.1500" lon="65.5333" name="Tyumen" country="Russian Federation" cc="RU" sponsor="DOM.RU" id="2697"  url2="http://st.tmn.ertelecom.ru/speedtest/upload.php" />
<server url="http://sptest.inet72.ru/speedtest/upload.php" lat="57.1500" lon="65.5333" name="Tyumen" country="Russian Federation" cc="RU" sponsor="NetLine NSP Ltd." id="2202"  url2="http://sptest2.inet72.ru/speedtest/upload.php" />
<server url="http://speedtest.ivanovo.u-disk.ru/speedtest/upload.php" lat="56.9967" lon="40.9819" name="Ivanovo" country="Russian Federation" cc="RU" sponsor="Rostelecom" id="3481"  url2="http://speedtest2.ivanovo.u-disk.ru/speedtest/upload.php" host="speedtest.ivanovo.u-disk.ru:8080" />
<server url="http://speedtest.ivanovo.u-disk.ru/speedtest/upload.php" lat="56.9967" lon="40.9819" name="Ivanovo" country="Russian Federation" cc="RU" sponsor="Rostelecom" id="4187"  url2="http://speedtest2.ivanovo.u-disk.ru/speedtest/upload.php" host="speedtest2.ivanovo.u-disk.ru:8080" />
<server url="http://speedtest1.n37.ru/speedtest/upload.php" lat="56.9967" lon="40.9819" name="Ivanovo" country="Russian Federation" cc="RU" sponsor="TTK" id="2960"  url2="http://speedtest2.n37.ru/speedtest/upload.php" />
<server url="http://speedtest1.ivanovo.comstar-r.ru/speedtest/speedtest/upload.php" lat="56.9967" lon="40.9819" name="Ivanovo" country="Russian Federation" cc="RU" sponsor="MTS" id="1857"  url2="http://speedtest2.ivanovo.comstar-r.ru/speedtest/speedtest/upload.php" />
<server url="http://net.speedtest.lv/speedtest/upload.php" lat="56.9496" lon="24.1040" name="Riga" country="Latvia" cc="LV" sponsor="Lattelecom" id="1268"  />
<server url="http://www.ping.lv/speedtest/upload.php" lat="56.9496" lon="24.1040" name="Riga" country="Latvia" cc="LV" sponsor="AS Balticom" id="1348"  url2="http://speedtest.ping.lv/speedtest/upload.php" />
<server url="http://peacedata.us/speedtest/speedtest/upload.php" lat="56.9496" lon="24.1040" name="Riga" country="Latvia" cc="LV" sponsor="SIA &quot;PeaceData&quot;" id="4467"  url2="http://telecomplus.lv/speedtest/speedtest/upload.php" host="peacedata.us:8080" />
<server url="http://speedtest1.srnet.lv/speedtest/upload.php" lat="56.9496" lon="24.1040" name="Riga" country="Latvia" cc="LV" sponsor="SIA Stream Networks" id="2151"  url2="http://speedtest2.srnet.lv/speedtest/upload.php" />
<server url="http://speedtest.alphahost.lv/speedtest/upload.php" lat="56.9496" lon="24.1040" name="Riga" country="Latvia" cc="LV" sponsor="AlphaHost.lv" id="3285"  url2="http://speedtest2.alphahost.lv/speedtest/upload.php" />
<server url="http://speedtest.tver.u-disk.ru/speedtest/upload.php" lat="56.8667" lon="35.9167" name="Tver" country="Russian Federation" cc="RU" sponsor="Rostelecom" id="3265"  url2="http://speedtest2.tver.u-disk.ru/speedtest/upload.php" host="speedtest.tver.u-disk.ru:8080" />
<server url="http://speedtest.tver.ertelecom.ru/speedtest/upload.php" lat="56.8667" lon="35.9167" name="Tver" country="Russian Federation" cc="RU" sponsor="DOM.RU" id="2732"  url2="http://st.tver.ertelecom.ru/speedtest/upload.php" />
<server url="http://speedtest1.tver.comstar-r.ru/speedtest/speedtest/upload.php" lat="56.8667" lon="35.9167" name="Tver" country="Russian Federation" cc="RU" sponsor="MTS" id="1909"  url2="http://speedtest2.tver.comstar-r.ru/speedtest/speedtest/upload.php" />
<server url="http://speedtest.izhevsk.u-disk.ru/speedtest/upload.php" lat="56.8333" lon="53.1833" name="Izhevsk" country="Russian Federation" cc="RU" sponsor="Rostelecom" id="3516"  url2="http://speedtest2.izhevsk.u-disk.ru/speedtest/upload.php" host="speedtest.izhevsk.u-disk.ru:8080" />
<server url="http://speedtest.izhevsk.net/speedtest/upload.php" lat="56.8333" lon="53.1833" name="Izhevsk" country="Russian Federation" cc="RU" sponsor="Mark-ITT" id="1136"  url2="http://217.14.203.145/speedtest/upload.php" />
<server url="http://speedtest.izhnet.ru/speedtest/upload.php" lat="56.8333" lon="53.1833" name="Izhevsk" country="Russian Federation" cc="RU" sponsor="LinerTelecom" id="2199"  />
<server url="http://speedtest.izhevsk.ertelecom.ru/speedtest/upload.php" lat="56.8333" lon="53.1833" name="Izhevsk" country="Russian Federation" cc="RU" sponsor="DOM.RU" id="2704"  url2="http://st.izhevsk.ertelecom.ru/speedtest/upload.php" />
<server url="http://speedtest.18r.ru/speedtest/upload.php" lat="56.8333" lon="53.1833" name="Izhevsk" country="Russian Federation" cc="RU" sponsor="Izhline Ltd." id="1802"  />
<server url="http://speedtest.ekat.u-disk.ru/speedtest/upload.php" lat="56.8333" lon="60.5833" name="Ekaterinburg" country="Russian Federation" cc="RU" sponsor="Rostelecom" id="2602"  host="speedtest.ekat.u-disk.ru:8080" />
<server url="http://speedtest.ekat.ertelecom.ru/speedtest/upload.php" lat="56.8333" lon="60.5833" name="Ekaterinburg" country="Russian Federation" cc="RU" sponsor="DOM.RU" id="2705"  url2="http://st.ekat.ertelecom.ru/speedtest/upload.php" />
<server url="http://62.33.153.253/speedtest/upload.php" lat="56.8333" lon="60.5833" name="Ekaterinburg" country="Russian Federation" cc="RU" sponsor="CJSC Ural-TransTeleCom" id="955"  />
<server url="http://tarvalon.ural.net/speedtest/upload.php" lat="56.8333" lon="60.5833" name="Ekaterinburg" country="Russian Federation" cc="RU" sponsor="Ural WES" id="1930"  url2="http://195.64.192.47/speedtest/upload.php" />
<server url="http://speedtest.ural.comstar-r.ru/speedtest/upload.php" lat="56.8333" lon="60.5833" name="Ekaterinburg" country="Russian Federation" cc="RU" sponsor="MTS" id="1908"  url2="http://speedtest1.ural.comstar-r.ru/speedtest/upload.php" />
<server url="http://speedtest01.youlan.ru/speedtest/upload.php" lat="56.8333" lon="60.5833" name="Yekaterinburg" country="Russian Federation" cc="RU" sponsor="YouLAN" id="3205"  onmap="0" url2="http://speedtest02.youlan.ru/speedtest/upload.php" />
<server url="http://speedtest.oic.lv/speedtest/upload.php" lat="56.8167" lon="24.6056" name="Ogre" country="Latvia" cc="LV" sponsor="SIA Ogres Interneta Cntrs" id="996"  />
<server url="http://st1.dubna.ru/speedtest/upload.php" lat="56.7333" lon="37.1667" name="Dubna" country="Russian Federation" cc="RU" sponsor="Contact Company Ltd." id="2786"  url2="http://st2.dubna.ru/speedtest/upload.php" />
<server url="http://speed.tmpk.net/speedtest/upload.php" lat="56.7333" lon="37.1667" name="Dubna" country="Russian Federation" cc="RU" sponsor="Telecom MPK" id="2831"  url2="http://speedtest.tmpk.net/speedtest/upload.php" />
<server url="http://speedtest.yola.u-disk.ru/speedtest/upload.php" lat="56.6333" lon="47.8667" name="Yoshkar-ola" country="Russian Federation" cc="RU" sponsor="Rostelecom" id="3511"  url2="http://speedtest2.yola.u-disk.ru/speedtest/upload.php" host="speedtest.yola.u-disk.ru:8080" />
<server url="http://speedtest.yola.ertelecom.ru/speedtest/upload.php" lat="56.6333" lon="47.8667" name="Yoshkar-ola" country="Russian Federation" cc="RU" sponsor="DOM.RU" id="2662"  url2="http://st.yola.ertelecom.ru/speedtest/upload.php" />
<server url="http://e-vels.lv/btest/speedtest/upload.php" lat="56.5500" lon="27.7167" name="Ludza" country="Latvia" cc="LV" sponsor="E-vels Internets" id="2022"  url2="http://www.e-vels.lv/btest/speedtest/upload.php" />
<server url="http://test.starnet.lv/speedtest/upload.php" lat="56.5127" lon="27.3427" name="Rezekne" country="Latvia" cc="LV" sponsor="Starnet SIA" id="4451"  url2="http://ping.starnet.lv/speedtest/upload.php" host="test.starnet.lv:8080" />
<server url="http://speed.ostkom.lv/speedtest/upload.php" lat="56.5117" lon="21.0139" name="Liepaja" country="Latvia" cc="LV" sponsor="SIA OSTKOM" id="2450"  url2="http://speedtest.ostkom.lv/speedtest/upload.php" />
<server url="http://net.elektrons-k.lv/speedtest/upload.php" lat="56.5117" lon="21.0139" name="Liepaja" country="Latvia" cc="LV" sponsor="Elektrons&amp;K" id="2739"  url2="http://speedtest.elektrons-k.lv/speedtest/upload.php" />
<server url="http://speed-tmk.myttk.ru/speedtest/upload.php" lat="56.5000" lon="84.9700" name="Tomsk" country="Russian Federation" cc="RU" sponsor="JSC Zap-Sib TransTeleCom" id="1829"  host="speed-tmk.myttk.ru:8080" />
<server url="http://speedtest.tomtel.ru/speedtest/upload.php" lat="56.5000" lon="84.9700" name="Tomsk" country="Russian Federation" cc="RU" sponsor="Tomtel" id="3838"  host="speedtest.tomtel.ru:8080" />
<server url="http://ext.speedtest.nts.su/speedtest/upload.php" lat="56.5000" lon="84.9700" name="Tomsk" country="Russian Federation" cc="RU" sponsor="NEW TELESYSTEMS" id="3041"  url2="http://ext2.speedtest.nts.su/speedtest/upload.php" host="ext.speedtest.nts.su:8080" />
<server url="http://speedtest.tomsknet.ru/speedtest/upload.php" lat="56.5000" lon="84.9700" name="Tomsk" country="Russian Federation" cc="RU" sponsor="Rostelecom" id="1287"  />
<server url="http://speedtest.tomsk.ertelecom.ru/speedtest/upload.php" lat="56.5000" lon="84.9700" name="Tomsk" country="Russian Federation" cc="RU" sponsor="DOM.RU" id="2943"  url2="http://st.tomsk.ertelecom.ru/speedtest/upload.php" />
<server url="http://st.lanonline.ru/speedtest/upload.php" lat="56.4500" lon="60.1833" name="Polevskoy" country="Russian Federation" cc="RU" sponsor="Radiotehnika LLC" id="2994"  url2="http://st.rti66.ru/speedtest/upload.php" host="st.lanonline.ru:8080" />
<server url="http://speed.polevskoynet.ru/speedtest/upload.php" lat="56.4500" lon="60.1833" name="Polevskoy" country="Russian Federation" cc="RU" sponsor="INTERRA telecommunications group, Ltd." id="3112"  url2="http://speed2.polevskoynet.ru/speedtest/upload.php" />
<server url="http://st.trytek.ru/speedtest/upload.php" lat="56.3916" lon="38.7138" name="Alexandrov" country="Russian Federation" cc="RU" sponsor="Trytek Ltd." id="1577"  host="st.trytek.ru:8080" />
<server url="http://speed.aleks.fm/speedtest/upload.php" lat="56.3916" lon="38.7138" name="Alexandrov" country="Russian Federation" cc="RU" sponsor="Alexandrov, FM" id="2995"  url2="http://speed2.aleks.fm/speedtest/upload.php" />
<server url="http://speedtest1.itnet33.ru/speedtest/upload.php" lat="56.3667" lon="41.3333" name="Kovrov" country="Russian Federation" cc="RU" sponsor="ITNet33" id="2642"  url2="http://speedtest2.itnet33.ru/speedtest/upload.php" host="speedtest1.itnet33.ru:8080" />
<server url="http://www.kovrov.net/speedtest/speedtest/upload.php" lat="56.3667" lon="41.3333" name="Kovrov" country="Russian Federation" cc="RU" sponsor="KovrovTelecom Ltd." id="2117"  url2="http://195.230.109.4/speedtest/speedtest/upload.php" />
<server url="http://speed.fastlnk.ru/speedtest/upload.php" lat="56.3500" lon="35.9167" name="Tver" country="Russian Federation" cc="RU" sponsor="Fast Link Ltd." id="1111"  host="speed.fastlnk.ru:8080" />
<server url="http://speedtest.mcomm.ru/speedtest/upload.php" lat="56.3500" lon="37.5667" name="Dmitrov" country="Russia" cc="RU" sponsor="CJSC Advantage Telecom" id="3918"  url2="http://speedtest2.mcomm.ru/speedtest/upload.php" host="speedtest.mcomm.ru:8080" />
<server url="http://speed03.commstream.net/speedtest/upload.php" lat="56.3478" lon="-94.7089" name="Gillam, MB" country="Canada" cc="CA" sponsor="CommStream" id="4218"  url2="http://speed03.commstream.net/speedtest/upload.php" />
<server url="http://speedtest.nnov.u-disk.ru/speedtest/upload.php" lat="56.3264" lon="44.0078" name="Nizhny Novgorod" country="Russian Federation" cc="RU" sponsor="Rostelecom" id="2563"  url2="http://speedtest2.nnov.u-disk.ru/speedtest/upload.php" host="speedtest.nnov.u-disk.ru:8080" />
<server url="http://speedtest.nnov.mts.ru/speedtest/upload.php" lat="56.3264" lon="44.0078" name="Nizhny Novgorod" country="Russia" cc="RU" sponsor="MTS" id="4503"  url2="http://213.87.70.45/speedtest/upload.php" host="speedtest.nnov.mts.ru:8080" />
<server url="http://speed.ruweb-nn.ru/speedtest/upload.php" lat="56.3264" lon="44.0078" name="Nizhny Novgorod" country="Russian Federation" cc="RU" sponsor="Ruweb-NN" id="2423"  url2="http://st.ruweb-nn.ru/speedtest/upload.php" />
<server url="http://speed.megafoncenter.ru/speedtest/upload.php" lat="56.3264" lon="44.0078" name="Nizhny Novgorod" country="Russian Federation" cc="RU" sponsor="Megafon" id="1790"  url2="http://83.149.42.190/speedtest/upload.php" />
<server url="http://speedtest.nn.ertelecom.ru/speedtest/upload.php" lat="56.3264" lon="44.0078" name="Nizhny Novgorod" country="Russian Federation" cc="RU" sponsor="DOM.RU" id="2698"  url2="http://st.nn.ertelecom.ru/speedtest/upload.php" />
<server url="http://speedtest.pif-paf.ru/speedtest/upload.php" lat="56.3264" lon="44.0078" name="Nizhny Novgorod" country="Russian Federation" cc="RU" sponsor="Comstar-r" id="3170"  onmap="0" url2="http://speedtest1.pif-paf.ru/speedtest/upload.php" />
<server url="http://speedtest.dalmatovo.ru/speedtest/upload.php" lat="56.2678" lon="62.9166" name="Dalmatovo" country="Russian Federation" cc="RU" sponsor="ltd Rus" id="3040"  url2="http://speedtest1.dalmatovo.ru/speedtest/upload.php" />
<server url="http://dzrspeedtest.nnov.comstar-r.ru/speedtest/upload.asp" lat="56.2333" lon="43.4500" name="Dzerzhinsk" country="Russian Federation" cc="RU" sponsor="MTS" id="2147"  url2="http://dzrspeedtest1.nnov.comstar-r.ru/speedtest/upload.asp" />
<server url="http://speedtest.istokk.ru/speedtest/upload.php" lat="56.2017" lon="95.7175" name="Kansk" country="Russian Federation" cc="RU" sponsor="Istok Ltd" id="2851"  url2="http://st.istokk.ru/speedtest/upload.php" />
<server url="http://speedtest.lejetlan.dk/speedtest/upload.php" lat="56.1582" lon="10.2101" name="Aarhus" country="Denmark" cc="DK" sponsor="Lej-et-LAN" id="3443"  url2="http://195.189.131.14/speedtest/upload.php" host="speedtest.lejetlan.dk:8080" />
<server url="http://st1.sv-tel.ru/speedtest/upload.php" lat="56.1500" lon="44.1833" name="Kstovo" country="Russian Federation" cc="RU" sponsor="OOO Svyazist" id="4154"  url2="http://st2.sv-tel.ru/speedtest/upload.php" />
<server url="http://speedtest.vladimir.u-disk.ru/speedtest/upload.php" lat="56.1333" lon="40.4167" name="Vladimir" country="Russian Federation" cc="RU" sponsor="Rostelecom" id="3523"  url2="http://speedtest2.vladimir.u-disk.ru/speedtest/upload.php" host="speedtest.vladimir.u-disk.ru:8080" />
<server url="http://speedtest1.dobroe.ru/speedtest/upload.php" lat="56.1333" lon="40.4167" name="Vladimir" country="Russian Federation" cc="RU" sponsor="MTS" id="1893"  url2="http://speedtest2.dobroe.ru/speedtest/upload.php" />
<server url="http://speedtest.cheb.ertelecom.ru/speedtest/upload.php" lat="56.1333" lon="47.2500" name="Cheboksary" country="Russian Federation" cc="RU" sponsor="DOM.RU" id="2731"  url2="http://st.cheb.ertelecom.ru/speedtest/upload.php" />
<server url="http://speedtest.info-link.ru/speedtest/upload.php" lat="56.1333" lon="47.2500" name="Cheboksary" country="Russian Federation" cc="RU" sponsor="Infolink" id="3555"  url2="http://speedtest2.info-link.ru/speedtest/upload.php" />
<server url="http://speed.etherway.ru/speedtest/upload.php" lat="56.1333" lon="47.2500" name="Cheboksary" country="Russian Federation" cc="RU" sponsor="Etherway" id="1215"  host="speed.etherway.ru:8080" />
<server url="http://speedtest.shadrinsk.net/speedtest/upload.php" lat="56.1333" lon="63.6500" name="Shadrinsk" country="Russian Federation" cc="RU" sponsor="Courier Plus ISP" id="995"  url2="http://speedtest2.shadrinsk.net/speedtest/upload.php" />
<server url="http://sanek508.net/mini/speedtest/upload.php" lat="56.1333" lon="93.3667" name="Sosnovoborsk" country="Russian Federation" cc="RU" sponsor="Sanek508.net" id="4407"  url2="http://alpha-t.org/mini/speedtest/upload.php" host="sanek508.net:8080" />
<server url="http://speedtest.cheboksary.u-disk.ru/speedtest/upload.php" lat="56.1103" lon="47.2511" name="Cheboksary" country="Russia" cc="RU" sponsor="Rostelecom" id="4481"  url2="http://speedtest2.cheboksary.u-disk.ru/speedtest/upload.php" host="speedtest.cheboksary.u-disk.ru:8080" />
<server url="http://ub.vega-int.ru/mini/speedtest/upload.php" lat="56.0833" lon="60.7333" name="Snezhinsk" country="Russia" cc="RU" sponsor="Vega-Service, LLC" id="4431"  url2="http://46.45.32.9/mini/speedtest/upload.php" host="ub.vega-int.ru:8080" />
<server url="http://speedtest01.waoo.dk/speedtest/upload.php" lat="56.0417" lon="9.9250" name="Skanderborg" country="Denmark" cc="DK" sponsor="Waoo!" id="4435"  url2="http://speedtest02.waoo.dk/speedtest/upload.php" host="speedtest01.waoo.dk:8080" />
<server url="http://www.orion33.net/speedtest/speedtest/upload.php" lat="56.0167" lon="39.9500" name="Lakinsk" country="Russian Federation" cc="RU" sponsor="orion33" id="3438"  url2="http://wwwcopy.orion33.net/speedtest/speedtest/upload.php" />
<server url="http://speedtest.krasnoyarsk.u-disk.ru/speedtest/upload.php" lat="56.0026" lon="92.8853" name="Кrasnoyarsk" country="Russian Federation" cc="RU" sponsor="Rostelecom" id="3545"  url2="http://speedtest2.krasnoyarsk.u-disk.ru/speedtest/upload.php" host="speedtest.krasnoyarsk.u-disk.ru:8080" />
<server url="http://speed.cemka.org/speedtest/upload.php" lat="56.0026" lon="92.8853" name="Krasnoyarsk" country="Russian Federation" cc="RU" sponsor="cemka.org" id="4270"  url2="http://test.cemka.org/speedtest/upload.php" host="speed.cemka.org:8080" />
<server url="http://speedtest.krsk.ertelecom.ru/speedtest/upload.php" lat="56.0026" lon="92.8853" name="Krasnoyarsk" country="Russian Federation" cc="RU" sponsor="DOM.RU" id="2701"  url2="http://st.krsk.ertelecom.ru/speedtest/upload.php" />
<server url="http://test.optizone.ru/speedtest/upload.php" lat="56.0026" lon="92.8853" name="Krasnoyarsk" country="Russian Federation" cc="RU" sponsor="OptiZone Ltd." id="1230"  url2="http://test.optibit.ru/speedtest/upload.php" />
<server url="http://m-12v.ru/speedtest/upload.php" lat="56.0000" lon="90.3833" name="Nazarovo" country="Russia" cc="RU" sponsor="h-nt.ru" id="4473"  url2="http://temp24.ru/speedtest/upload.php" host="m-12v.ru:8080" />
<server url="http://www.topnet.lt/speedtest/upload.php" lat="55.9833" lon="22.9167" name="Kursenai" country="Lithuanua" cc="LT" sponsor="UAB TOPNET" id="3118"  />
<server url="http://speedtest.dolgoprudniy.u-disk.ru/speedtest/upload.php" lat="55.9406" lon="37.5183" name="Dolgoprudny" country="Russian Federation" cc="RU" sponsor="Rostelecom" id="3515"  url2="http://speedtest2.dolgoprudniy.u-disk.ru/speedtest/upload.php" host="speedtest.dolgoprudniy.u-disk.ru:8080" />
<server url="http://speedtest.telecom.mipt.ru/speedtest/upload.php" lat="55.9406" lon="37.5183" name="Dolgoprudny" country="Russian Federation" cc="RU" sponsor="MIPT-Telecom" id="874"  url2="http://speedtest2.telecom.mipt.ru/speedtest/upload.php" host="speedtest.telecom.mipt.ru:8080" />
<server url="http://st.prado.lt/speedtest/upload.php" lat="55.9281" lon="23.3150" name="Siauliai" country="Lithuania" cc="LT" sponsor="Prado Solutions" id="2948"  url2="http://speed.staffless.ru/speedtest/upload.php" />
<server url="http://info.telecom-net.ru/speedtest/upload.php" lat="55.9200" lon="36.8687" name="Istra" country="Russian Federation" cc="RU" sponsor="Telecom-Net Network" id="2882"  url2="http://195.26.30.3/speedtest/upload.php" />
<server url="http://speed.istranet.ru/speedtest/upload.php" lat="55.9167" lon="36.8667" name="Istra" country="Russian Federation" cc="RU" sponsor="OOO Istranet" id="1950"  url2="http://176.62.176.85/speedtest/upload.php" />
<server url="http://korolev.city-link.info/speedtest/upload.php" lat="55.9167" lon="37.8167" name="Korolev" country="Russian Federation" cc="RU" sponsor="CityLink" id="2228"  url2="http://speed.city-link.info/speedtest/upload.php" />
<server url="http://speedtest.vshk.ru/speedtest/upload.php" lat="55.9167" lon="38.0000" name="Shchyolkovo" country="Russian Federation" cc="RU" sponsor="Ltd &quot;Korporativniy Partner&quot;" id="4294"  url2="http://speedtest1.vshk.ru/speedtest/upload.php" host="speedtest.vshk.ru:8080" />
<server url="http://speed.lite-telecom.ru/speedtest/upload.php" lat="55.9167" lon="38.0000" name="Shchyolkovo" country="Russian Federation" cc="RU" sponsor="Lite-Telecom" id="2735"  url2="http://speed.shchelkovo-net.ru/speedtest/upload.php" />
<server url="http://intek-m.ru/speedtest/upload.php" lat="55.9131" lon="37.7544" name="Mytishchi" country="Russian Federation" cc="RU" sponsor="Intek-M" id="2282"  url2="http://mytischi.net/speedtest/upload.php" host="intek-m.ru:8080" />
<server url="http://speedtest1.opcom.ru/speedtest/upload.php" lat="55.9131" lon="37.7544" name="Mytishchi" country="Russian Federation" cc="RU" sponsor="Opticom" id="3612"  host="speedtest1.opcom.ru:8080" />
<server url="http://speedtest.bigtelecom.ru/speedtest/upload.php" lat="55.8900" lon="37.4400" name="Khimki" country="Russian Federation" cc="RU" sponsor="BIG Telecom" id="775"  url2="http://87.255.1.133/speedtest/upload.php" />
<server url="http://telincom.ru/speedtest/speedtest/upload.php" lat="55.8900" lon="37.4400" name="Khimki" country="Russian Federation" cc="RU" sponsor="Telincom" id="2551"  />
<server url="http://speedtest.dautkom.lv/speedtest/upload.php" lat="55.8800" lon="26.5100" name="Daugavpils" country="Latvia" cc="LV" sponsor="DauTKom TV" id="1399"  url2="http://62.205.205.2/speedtest/upload.php" host="speedtest.dautkom.lv:8080" />
<server url="http://speedtest.flex.ru/speedtest/upload.php" lat="55.8550" lon="38.4419" name="Noginsk" country="Russian Federation" cc="RU" sponsor="Ltd. &quot;Flex&quot;" id="3202"  url2="http://speedtest2.flex.ru/speedtest/upload.php" />
<server url="http://speed.ipls.ru/speedtest/upload.php" lat="55.8167" lon="37.3333" name="Krasnogorsk" country="Russian Federation" cc="RU" sponsor="IPLS" id="3139"  url2="http://speed.krastelcom.ru/speedtest/upload.php" />
<server url="http://speedtest1.balnet.ru/mini/speedtest/upload.php" lat="55.8167" lon="37.9667" name="Balashikha" country="Russian Federation" cc="RU" sponsor="ISP Balnet" id="2296"  host="speedtest1.balnet.ru:8080" />
<server url="http://speedtest1.mksbalashihi.ru/speedtest/upload.php" lat="55.8167" lon="37.9667" name="Balashikha" country="Russian Federation" cc="RU" sponsor="MTS" id="2061"  url2="http://speedtest2.mksbalashihi.ru/speedtest/upload.php" />
<server url="http://testspeed.tattelecom.ru/speedtest/upload.php" lat="55.7951" lon="49.1089" name="Kazan" country="Russian Federation" cc="RU" sponsor="Tattelecom" id="1325"  url2="http://speedtest.tattelecom.ru/speedtest/upload.php" />
<server url="http://speedtest.kzn.ertelecom.ru/speedtest/upload.php" lat="55.7951" lon="49.1089" name="Kazan" country="Russian Federation" cc="RU" sponsor="DOM.RU" id="2703"  url2="http://st.kzn.ertelecom.ru/speedtest/upload.php" />
<server url="http://speedtest.moscow.megafon.ru/speedtest/upload.php" lat="55.7517" lon="37.6178" name="Moscow" country="Russian Federation" cc="RU" sponsor="Megafon" id="1789"  url2="http://193.201.230.9/speedtest/upload.php" host="speedtest.moscow.megafon.ru:8080" />
<server url="http://speedtest.moscow.u-disk.ru/speedtest/speedtest/upload.php" lat="55.7517" lon="37.6178" name="Moscow" country="Russian Federation" cc="RU" sponsor="Rostelecom" id="3682"  url2="http://speedtest2.moscow.u-disk.ru/speedtest/speedtest/upload.php" host="speedtest.moscow.u-disk.ru:8080" />
<server url="http://speedtest-1.rutube.ru/speedtest/upload.php" lat="55.7517" lon="37.6178" name="Moscow" country="Russian Federation" cc="RU" sponsor="RuTube" id="2322"  url2="http://speedtest-2.rutube.ru/speedtest/upload.php" host="speedtest-1.rutube.ru:8080" />
<server url="http://st.lgtel.ru/speedtest/upload.php" lat="55.7517" lon="37.6178" name="Moscow" country="Russian Federation" cc="RU" sponsor="Logitel Telecom" id="4399"  url2="http://st2.lgtel.ru/speedtest/upload.php" host="st.lgtel.ru:8080" />
<server url="http://speedtest1.dtln.ru/speedtest/upload.php" lat="55.7517" lon="37.6178" name="Moscow" country="Russia" cc="RU" sponsor="Dataline Ltd" id="4472"  url2="http://speedtest2.dtln.ru/speedtest/upload.php" host="speedtest1.dtln.ru:8080" />
<server url="http://iphouse.ru/s/speedtest/upload.php" lat="55.7517" lon="37.6178" name="Moscow" country="Russian Federation" cc="RU" sponsor="LLC &quot;SouthNets&quot;" id="4381"  onmap="0" url2="http://molokovo.net/s/speedtest/upload.php" host="iphouse.ru:8080" />
<server url="http://librarian.comstar.ru/speedtest/speedtest/upload.php" lat="55.7517" lon="37.6178" name="Moscow" country="Russian Federation" cc="RU" sponsor="MTS" id="1907"  onmap="0" url2="http://mail0.comstar.ru/speedtest/speedtest/upload.php" />
<server url="http://speedtest.comendo.com/speedtest/upload.php" lat="55.7333" lon="12.4833" name="Gladsaxe" country="Denmark" cc="DK" sponsor="Comendo A/S" id="3514"  url2="http://speedtest2.comendo.com/speedtest/upload.php" host="speedtest.comendo.com:8080" />
<server url="http://yrga.ru/speed/speedtest/upload.php" lat="55.7231" lon="84.8861" name="Yurga" country="Russian Federation" cc="RU" sponsor="OAO Yurgatelecom" id="3157"  url2="http://31.170.187.225/speed/speedtest/upload.php" />
<server url="http://stnet1.balticum.lt/speedtest/upload.php" lat="55.7000" lon="21.1333" name="Klaipeda" country="Lithuania" cc="LT" sponsor="Balticum TV" id="3556"  url2="http://stnet2.balticum.lt/speedtest/upload.php" host="stnet1.balticum.lt:8080" />
<server url="http://speed-klaipeda.zebra.lt/speedtest/upload.php" lat="55.7000" lon="21.1333" name="Klaipeda" country="Lithuania" cc="LT" sponsor="TEO LT" id="1385"  url2="http://81.7.119.10/speedtest/upload.php" host="speed-klaipeda.zebra.lt:8080" />
<server url="http://speedtest.chelny.ertelecom.ru/speedtest/upload.php" lat="55.6833" lon="52.3167" name="Naberezhnye Chelny" country="Russian Federation" cc="RU" sponsor="DOM.RU" id="2664"  url2="http://st.chelny.ertelecom.ru/speedtest/upload.php" />
<server url="http://speedtest.zensystems.dk/speedtest/upload.php" lat="55.6750" lon="12.5687" name="Copenhagen" country="Denmark" cc="DK" sponsor="Zen Systems" id="1133"  url2="http://speedtest2.zensystems.dk/speedtest/upload.php" />
<server url="http://speed.vltele.com/speedtest/upload.php" lat="55.6667" lon="37.2833" name="Odintsovo" country="Russian Federation" cc="RU" sponsor="VL-Telecom Ltd" id="2074"  url2="http://speedtest.vltele.com/speedtest/upload.php" />
<server url="http://speedtest1.dansknet.dk/speedtest/upload.php" lat="55.6500" lon="12.3000" name="Taastrup" country="Denmark" cc="DK" sponsor="Dansk Net A/S" id="3707"  host="speedtest1.dansknet.dk:8080" />
<server url="http://sptest1.gc-net.eu/speedtest/upload.php" lat="55.6500" lon="12.3000" name="Taastrup" country="Denmark" cc="DK" sponsor="GlobalConnect A/S" id="2908"  url2="http://sptest2.gc-net.eu/speedtest/upload.php" />
<server url="http://speedtest.ironnet.info/speedtest/upload.php" lat="55.6500" lon="109.3167" name="Severobaykalsk" country="Russian Federation" cc="RU" sponsor="LLC Ironnet" id="3288"  url2="http://ironnet.info/mini/speedtest/upload.php" />
<server url="http://speed8.znportal.ru/speedtest/upload.php" lat="55.5953" lon="38.1203" name="Zhukovskiy" country="Russian Federation" cc="RU" sponsor="Zhukovsky.Net" id="3063"  />
<server url="http://speedtest.tmnet.se/speedtest/upload.php" lat="55.5833" lon="13.0333" name="Malmo" country="Sweden" cc="SE" sponsor="Teknikmejeriet AB" id="330"  url2="http://84.243.62.5/speedtest/upload.php" />
<server url="http://speedtest.izmuroma.ru/speedtest/upload.php" lat="55.5667" lon="42.0333" name="Murom" country="Russian Federation" cc="RU" sponsor="InformTech" id="1989"  url2="http://www.speedtest.izmuroma.ru/speedtest/upload.php" />
<server url="http://speedtest.kurgan.u-disk.ru/speedtest/upload.php" lat="55.4667" lon="65.3500" name="Kurgan" country="Russian Federation" cc="RU" sponsor="Rostelecom" id="4289"  url2="http://speedtest2.kurgan.u-disk.ru/speedtest/upload.php" host="speedtest.kurgan.u-disk.ru:8080" />
<server url="http://speedtest.infocentr.ru/speedtest/upload.php" lat="55.4667" lon="65.3500" name="Kurgan" country="Russian Federation" cc="RU" sponsor="LLC Infocentr" id="979"  url2="http://speedtest.icentr.net/speedtest/upload.php" host="speedtest.infocentr.ru:8080" />
<server url="http://speedtest.infocentr.ru/speedtest/upload.php" lat="55.4667" lon="65.3500" name="Kurgan" country="Russian Federation" cc="RU" sponsor="MTS" id="4152"  url2="http://iperf.infocentr.ru/speedtest/upload.php" host="speedtest.infocentr.ru:8080" />
<server url="http://noc.btlab.pro/speedtest/speedtest/upload.php" lat="55.4667" lon="65.3500" name="Kurgan" country="Russian Federation" cc="RU" sponsor="KABiNET" id="3790"  host="noc.btlab.pro:8080" />
<server url="http://speedtest.kurgan.ertelecom.ru/speedtest/upload.php" lat="55.4667" lon="65.3500" name="Kurgan" country="Russian Federation" cc="RU" sponsor="DOM.RU" id="2700"  url2="http://st.kurgan.ertelecom.ru/speedtest/upload.php" />
<server url="http://speedtest-kurgan-eine.is74.ru/speedtest/upload.php" lat="55.4667" lon="65.3500" name="Kurgan" country="Russian Federation" cc="RU" sponsor="JSC Intersvyaz" id="2724"  onmap="0" url2="http://speedtest-kurgan-zwei.is74.ru/speedtest/upload.php" />
<server url="http://speedtest.kollegienet.dk/speedtest/upload.php" lat="55.3935" lon="10.3949" name="Odense" country="Denmark" cc="DK" sponsor="Foreningen Kollegienet Odense" id="2920"  url2="http://speedtest2.kollegienet.dk/speedtest/upload.php" host="speedtest.kollegienet.dk:8080" />
<server url="http://62.140.239.147/mini/speedtest/upload.php" lat="55.3833" lon="39.0333" name="Yegoryevsk" country="Russian Federation" cc="RU" sponsor="RegionalNetworkCompany" id="3834"  host="62.140.239.147:8080" />
<server url="http://speed-kmo.myttk.ru/speedtest/upload.php" lat="55.3608" lon="86.0889" name="Kemerovo" country="Russian Federation" cc="RU" sponsor="JSC Zap-Sib TransTeleCom" id="1832"  host="speed-kmo.myttk.ru:8080" />
<server url="http://speedtest.kemerovo.u-disk.ru/speedtest/upload.php" lat="55.3608" lon="86.0889" name="Kemerovo" country="Russian Federation" cc="RU" sponsor="Rostelecom" id="4296"  url2="http://speedtest2.kemerovo.u-disk.ru/speedtest/upload.php" host="speedtest.kemerovo.u-disk.ru:8080" />
<server url="http://test.my-yo.ru/speedtest/upload.php" lat="55.3608" lon="86.0889" name="Kemerovo" country="Russian Federation" cc="RU" sponsor="OJSC Rostelecom" id="4084"  url2="http://test1.my-yo.ru/speedtest/upload.php" host="test.my-yo.ru:8080" />
<server url="http://speed.kemerovo.comstar-r.ru/speedtest/upload.php" lat="55.3608" lon="86.0889" name="Kemerovo" country="Russian Federation" cc="RU" sponsor="MTS Kemerovo" id="2632"  url2="http://94.229.228.34/speedtest/upload.php" />
<server url="http://speedtest.goodline.info/speedtest/upload.php" lat="55.3608" lon="86.0889" name="Kemerovo" country="Russian Federation" cc="RU" sponsor="Good Line" id="1925"  url2="http://kemerovo-speedtest.goodline.info/speedtest/upload.php" />
<server url="http://speedtest.vosnet.ru/speedtest/upload.php" lat="55.3167" lon="38.7000" name="Voskresensk" country="Russian Federation" cc="RU" sponsor="PRK EPL" id="1115"  />
<server url="http://speedtest1.vyksa-net.ru/speedtest/upload.php" lat="55.3167" lon="42.1667" name="Vyksa" country="Russian Federation" cc="RU" sponsor="Telekom-MK" id="4264"  url2="http://speedtest2.vyksa-net.ru/speedtest/upload.php" host="speedtest1.vyksa-net.ru:8080" />
<server url="http://speed.zlattelecom.ru/speedtest/upload.php" lat="55.1833" lon="59.6333" name="Zlatoust" country="Russian Federation" cc="RU" sponsor="Zlat telecom LLC" id="3749"  host="speed.zlattelecom.ru:8080" />
<server url="http://windstone.su/speedtest/speedtest/upload.php" lat="55.1833" lon="59.6333" name="Zlatoust" country="Russian Federation" cc="RU" sponsor="eShop ''Windstone''" id="3980"  url2="http://exito-com.ru/speedtest/speedtest/upload.php" host="windstone.su:8080" />
<server url="http://speedtest-zlatoust-eine.is74.ru/speedtest/upload.php" lat="55.1833" lon="59.6333" name="Zlatoust" country="Russian Federation" cc="RU" sponsor="JSC Intersvyaz" id="2723"  url2="http://speedtest-zlatoust-zwei.is74.ru/speedtest/upload.php" />
<server url="http://speedtest.coool.ca/speedtest/upload.aspx" lat="55.1708" lon="-118.7947" name="Grande Prairie, AB" country="Canada" cc="CA" sponsor="GPN Wireless Network Sol" id="1247"  host="speedtest.coool.ca:8080" />
<server url="http://speedtest-west.eastlink.ca/speedtest/upload.php" lat="55.1708" lon="-118.7947" name="Grande Prairie, AB" country="Canada" cc="CA" sponsor="Eastlink" id="2555"  url2="http://64.178.142.14/speedtest/upload.php" />
<server url="http://speedtest.chelyabinsk.u-disk.ru/speedtest/upload.php" lat="55.1667" lon="61.4000" name="Chelyabinsk" country="Russian Federation" cc="RU" sponsor="Rostelecom" id="3527"  url2="http://speedtest2.chelyabinsk.u-disk.ru/speedtest/upload.php" host="speedtest.chelyabinsk.u-disk.ru:8080" />
<server url="http://st.vashetv.ru/speedtest/upload.php" lat="55.1667" lon="61.4000" name="Chelyabinsk" country="Russian Federation" cc="RU" sponsor="Uralunicom, CJSC" id="2010"  url2="http://speedtest.vashetv.ru/speedtest/upload.php" host="st.vashetv.ru:8080" />
<server url="http://speedtest-eine.is74.ru/speedtest/upload.php" lat="55.1667" lon="61.4000" name="Chelyabinsk" country="Russian Federation" cc="RU" sponsor="JSC Intersvyaz" id="2557"  url2="http://speedtest-zwei.is74.ru/speedtest/upload.php" />
<server url="http://speedtest.chel.ertelecom.ru/speedtest/upload.php" lat="55.1667" lon="61.4000" name="Chelyabinsk" country="Russian Federation" cc="RU" sponsor="DOM.RU" id="2717"  url2="http://st.chel.ertelecom.ru/speedtest/upload.php" />
<server url="http://speedtest.mks-chel.ru/speedtest/upload.php" lat="55.1667" lon="61.4000" name="Chelyabinsk" country="Russian Federation" cc="RU" sponsor="MTS" id="1906"  url2="http://speedtest2.mks-chel.ru/speedtest/upload.php" />
<server url="http://chkv-speedtest.rialcom.ru/speedtest/upload.php" lat="55.1481" lon="37.4769" name="Chehov" country="Russian Federation" cc="RU" sponsor="CJSC RialCom" id="2208"  url2="http://speedtest01.rialcom.ru/speedtest/upload.php" />
<server url="http://speedtest-kopeysk-eine.is74.ru/speedtest/upload.php" lat="55.1167" lon="61.6500" name="Kopeysk" country="Russian Federation" cc="RU" sponsor="JSC Intersvyaz" id="2778"  url2="http://speedtest-kopeysk-zwei.is74.ru/speedtest/upload.php" />
<server url="http://st.kopnet.ru/speedtest/upload.php" lat="55.1167" lon="61.6500" name="Kopeysk" country="Russian Federation" cc="RU" sponsor="Insit Ltd" id="3554"  url2="http://st2.kopnet.ru/speedtest/upload.php" />
<server url="http://speedtest.ekran39.ru/speedtest/upload.php" lat="55.0833" lon="21.8833" name="Sovetsk" country="Russian Federation" cc="RU" sponsor="CJSC Ekran" id="2162"  url2="http://speedtest2.ekran39.ru/speedtest/upload.php" />
<server url="http://speedtest.colomna.net/speedtest/upload.php" lat="55.0833" lon="38.7833" name="Kolomna" country="Russian Federation" cc="RU" sponsor="JSC Kolomna-Sviaz TV" id="1126"  />
<server url="http://speedtest-miass-eine.is74.ru/speedtest/upload.php" lat="55.0500" lon="60.1000" name="Miass" country="Russian Federation" cc="RU" sponsor="JSC Intersvyaz" id="2722"  url2="http://speedtest-miass-zwei.is74.ru/speedtest/upload.php" />
<server url="http://speedtest.miass.multinex.ru/speedtest/upload.php" lat="55.0500" lon="60.1000" name="Miass" country="Russian Federation" cc="RU" sponsor="MTS" id="1867"  url2="http://speedtest2.miass.multinex.ru/speedtest/upload.php" />
<server url="http://speed.skat-satka.ru/speedtest/upload.php" lat="55.0425" lon="59.0400" name="Satka" country="Russia Federation" cc="RU" sponsor="SKAT Ltd." id="2793"  url2="http://speedtest.skat-satka.ru/speedtest/upload.php" />
<server url="http://speedtest.myttk.ru/speedtest/upload.php" lat="55.0000" lon="82.0000" name="Novosibirsk" country="Russian Federation" cc="RU" sponsor="JSC Zap-Sib TransTeleCom" id="1823"  url2="http://80.89.150.78/speedtest/upload.php" host="speedtest.myttk.ru:8080" />
<server url="http://speedtest.novosibirsk.u-disk.ru/speedtest/upload.php" lat="55.0000" lon="82.0000" name="Novosibirsk" country="Russian Federation" cc="RU" sponsor="Rostelecom" id="3296"  url2="http://speedtest2.novosibirsk.u-disk.ru/speedtest/upload.php" host="speedtest.novosibirsk.u-disk.ru:8080" />
<server url="http://speedtest1.sib.mts.ru/speedtest/upload.php" lat="55.0000" lon="82.0000" name="Novosibirsk" country="Russia" cc="RU" sponsor="Mobile TeleSystems OJSC" id="3868"  url2="http://speedtest2.sib.mts.ru/speedtest/upload.php" host="speedtest1.sib.mts.ru:8080" />
<server url="http://speedtest.avantel.ru/speedtest/upload.php" lat="55.0000" lon="82.0000" name="Novosibirsk" country="Russian Federation" cc="RU" sponsor="AVANTEL" id="4046"  url2="http://st.avantel.ru/speedtest/upload.php" host="speedtest.avantel.ru:8080" />
<server url="http://speedtest.megafonsib.ru/speedtest/upload.php" lat="55.0000" lon="82.0000" name="Novosibirsk" country="Russian Federation" cc="RU" sponsor="Megafon" id="1792"  />
<server url="http://speedtest.nsk.ertelecom.ru/speedtest/upload.php" lat="55.0000" lon="82.0000" name="Novosibirsk" country="Russian Federation" cc="RU" sponsor="DOM.RU" id="2696"  onmap="0" url2="http://st.nsk.ertelecom.ru/speedtest/upload.php" />
<server url="http://www.nwewn.com/mini/speedtest/upload.php" lat="54.9958" lon="-7.3074" name="Derry" country="Northern Ireland" cc="GB" sponsor="North West Electronics" id="1144"  url2="http://78.155.250.130/mini/speedtest/upload.php" />
<server url="http://speed-omk.myttk.ru/speedtest/upload.php" lat="54.9833" lon="73.3667" name="Omsk" country="Russian Federation" cc="RU" sponsor="JSC Zap-Sib TransTeleCom" id="1830"  url2="http://80.89.158.50/speedtest/upload.php" host="speed-omk.myttk.ru:8080" />
<server url="http://speedtest.omsk.u-disk.ru/speedtest/upload.php" lat="54.9833" lon="73.3667" name="Omsk" country="Russian Federation" cc="RU" sponsor="Rostelecom" id="4282"  url2="http://speedtest2.omsk.u-disk.ru/speedtest/upload.php" host="speedtest.omsk.u-disk.ru:8080" />
<server url="http://speedtest.omsk.ertelecom.ru/speedtest/upload.php" lat="54.9833" lon="73.3667" name="Omsk" country="Russian Federation" cc="RU" sponsor="DOM.RU" id="2695"  url2="http://st.omsk.ertelecom.ru/speedtest/upload.php" />
<server url="http://speedtest.omkc.ru/speedtest/upload.php" lat="54.9833" lon="73.3667" name="Omsk" country="Russian Federation" cc="RU" sponsor="Omsk-IX" id="1351"  url2="http://217.25.208.35/speedtest/upload.php" />
<server url="http://speedtest.wildcard.net.uk/speedtest/upload.php" lat="54.9740" lon="-1.6132" name="Newcastle upon Tyne" country="Great Britian" cc="GB" sponsor="Wildcard Networks" id="4058"  url2="http://speedtest-2.wildcard.net.uk/speedtest/upload.php" host="speedtest.wildcard.net.uk:8080" />
<server url="http://speedtest.sefiber.dk/speedtest/upload.php" lat="54.9138" lon="9.7922" name="Sonderborg" country="Denmark" cc="DK" sponsor="SE" id="3628"  url2="http://speedtest2.sefiber.dk/speedtest/upload.php" host="speedtest.sefiber.dk:8080" />
<server url="http://speed-kaunas.zebra.lt/speedtest/upload.php" lat="54.9000" lon="23.9333" name="Kaunas" country="Lithuania" cc="LT" sponsor="TEO LT, AB" id="1437"  host="speed-kaunas.zebra.lt:8080" />
<server url="http://speedtest.meganet.lt/speedtest/speedtest/upload.php" lat="54.9000" lon="23.9333" name="Kaunas" country="Lithuania" cc="LT" sponsor="DOKEDA" id="1050"  url2="http://88.222.0.7/speedtest/speedtest/upload.php" />
<server url="http://speedtest.solwaycomms.com/speedtest/upload.php" lat="54.8962" lon="-2.9316" name="Carlisle" country="Great Britain" cc="GB" sponsor="Solway Communications Ltd" id="4145"  url2="http://speedtest1.solwaycomms.com/speedtest/upload.php" host="speedtest.solwaycomms.com:8080" />
<server url="http://speedtest.kortv.ru/speedtest/upload.php" lat="54.8958" lon="61.3792" name="Korkino" country="Russia" cc="RU" sponsor="Korkino Cable TV Network" id="3791"  url2="http://speedtest2.kortv.ru/speedtest/upload.php" host="speedtest.kortv.ru:8080" />
<server url="http://speedtest.stupino.su/speedtest/upload.php" lat="54.8942" lon="38.0841" name="Stupino" country="Russian Federation" cc="RU" sponsor="SKS Telecom" id="3210"  url2="http://st.stupino.su/speedtest/upload.php" host="speedtest.stupino.su:8080" />
<server url="http://esilnet.com/speedtest/speedtest/upload.php" lat="54.8833" lon="69.1667" name="Petropavlovsk" country="Kazakhstan" cc="KZ" sponsor="EsilNet" id="2991"  url2="http://esil-ktv.kz/speedtest/speedtest/upload.php" host="esilnet.com:8080" />
<server url="http://speedtest.smolensk.u-disk.ru/speedtest/upload.php" lat="54.7833" lon="32.0500" name="Smolensk" country="Russian Federation" cc="RU" sponsor="Rostelecom" id="3263"  url2="http://speedtest2.smolensk.u-disk.ru/speedtest/upload.php" host="speedtest.smolensk.u-disk.ru:8080" />
<server url="http://speedtest.smoltelecom.ru/speedtest/upload.php" lat="54.7833" lon="32.0500" name="Smolensk" country="Russian Federation" cc="RU" sponsor="Smoltelecom LLC" id="1988"  url2="http://ppcmetr.smoltelecom.ru/speedtest/upload.php" />
<server url="http://speedtest1.smolensk.comstar-r.ru/speedtest/upload.php" lat="54.7833" lon="32.0500" name="Smolensk" country="Russian Federation" cc="RU" sponsor="MTS" id="1891"  url2="http://speedtest2.smolensk.comstar-r.ru/speedtest/upload.php" />
<server url="http://speed.bashtel.ru/speedtest/upload.php" lat="54.7500" lon="55.9667" name="Ufa" country="Russian Federation" cc="RU" sponsor="Bashinformsvyaz" id="2753"  url2="http://83.174.193.213/speedtest/upload.php" host="speedtest.bashtel.ru:8080" />
<server url="http://v.ufanet.ru/speedtest/upload.php" lat="54.7500" lon="55.9667" name="Ufa" country="Russian Federation" cc="RU" sponsor="OJSC Ufanet" id="3238"  url2="http://speedtest.ufanet.ru/speedtest/upload.php" />
<server url="http://speedtest.ufa.ertelecom.ru/speedtest/upload.php" lat="54.7500" lon="55.9667" name="Ufa" country="Russian Federation" cc="RU" sponsor="DOM.RU" id="2729"  url2="http://st.ufa.ertelecom.ru/speedtest/upload.php" />
<server url="http://195.191.82.1/speedtest/upload.php" lat="54.7500" lon="61.3000" name="Yemanzhelinsk" country="Russia" cc="RU" sponsor="TelKom" id="3826"  />
<server url="http://speedtest.kaliningrad.u-disk.ru/speedtest/upload.php" lat="54.7167" lon="20.5167" name="Kaliningrad" country="Russian Federation" cc="RU" sponsor="Rostelecom" id="2598"  url2="http://speedtest2.kaliningrad.u-disk.ru/speedtest/upload.php" host="speedtest.kaliningrad.u-disk.ru:8080" />
<server url="http://speedtest.etype.ru/speedtest/upload.php" lat="54.7167" lon="20.5167" name="Kaliningrad" country="Russian Federation" cc="RU" sponsor="Etype" id="4090"  url2="http://speedtest2.etype.ru/speedtest/upload.php" host="speedtest.etype.ru:8080" />
<server url="http://speedtest.tis-dialog.ru/speedtest/upload.php" lat="54.7167" lon="20.5167" name="Kaliningrad" country="Russian Federation" cc="RU" sponsor="Tis-Dialog" id="1352"  />
<server url="http://bytecity.ru/speedtest/speedtest/upload.php" lat="54.7167" lon="20.5167" name="Kaliningrad" country="Russian Federation" cc="RU" sponsor="JSC WestBalt Telecom" id="4112"  url2="http://speedtest.wbt.ru/speedtest/upload.php" />
<server url="http://speed-vilnius.zebra.lt/speedtest/upload.php" lat="54.6833" lon="25.2833" name="Vilnius" country="Lithuania" cc="LT" sponsor="TEO LT" id="1302"  host="speed-vilnius.zebra.lt:8080" />
<server url="http://speedtest-01.cgates.lt/speedtest/upload.php" lat="54.6833" lon="25.2833" name="Vilnius" country="Lithuania" cc="LT" sponsor="UAB Cgates" id="3058"  url2="http://speedtest-02.cgates.lt/speedtest/upload.php" host="speedtest-01.cgates.lt:8080" />
<server url="http://194.110.220.175/speedtest/upload.php" lat="54.6833" lon="25.2833" name="Vilnius" country="Lithuania" cc="LT" sponsor="Blue Bridge" id="3937"  url2="http://46.255.209.159/speedtest/upload.php" host="194.110.220.175:8080" />
<server url="http://speedtest.bite.lt/speedtest/upload.php" lat="54.6833" lon="25.2833" name="Vilnius" country="Lithuania" cc="LT" sponsor="UAB BITE LIETUVA" id="2548"  url2="http://213.226.131.167/speedtest/upload.php" />
<server url="http://speedtest.skynet.lt/speedtest/upload.php" lat="54.6833" lon="25.2833" name="Vilnius" country="Lithuania" cc="LT" sponsor="Penki Kontinentai" id="1728"  url2="http://speedtest2.skynet.lt/speedtest/upload.php" />
<server url="http://speedtest1.balt.net/speedtest/upload.php" lat="54.6833" lon="25.2833" name="Vilnius" country="Lithuania" cc="LT" sponsor="Baltneta" id="4219"  onmap="0" url2="http://speedtest2.balt.net/speedtest/upload.php" />
<server url="http://test.lenkuz.ru/speedtest/upload.php" lat="54.6575" lon="86.1617" name="Leninsk-Kuznetsky" country="Russian Federation" cc="RU" sponsor="Telekom" id="2028"  />
<server url="http://speed3.plastcom.pl/speedtest/upload.php" lat="54.6167" lon="18.3500" name="Reda" country="Poland" cc="PL" sponsor="Plast-Com" id="4216"  url2="http://speed4.plastcom.pl/speedtest/upload.php" host="speed3.plastcom.pl:8080" />
<server url="http://speedtest.ryazan.u-disk.ru/speedtest/upload.php" lat="54.6167" lon="39.7333" name="Ryazan" country="Russian Federation" cc="RU" sponsor="Rostelecom" id="3479"  url2="http://speedtest2.ryazan.u-disk.ru/speedtest/upload.php" host="speedtest.ryazan.u-disk.ru:8080" />
<server url="http://speedtest.ryazan.ertelecom.ru/speedtest/upload.php" lat="54.6167" lon="39.7333" name="Ryazan" country="Russian Federation" cc="RU" sponsor="DOM.RU" id="2691"  url2="http://st.ryazan.ertelecom.ru/speedtest/upload.php" />
<server url="http://speedtest1.ryazan.comstar-r.ru/speedtest/upload.php" lat="54.6167" lon="39.7333" name="Ryazan" country="Russian Federation" cc="RU" sponsor="MTS" id="1910"  url2="http://89.106.192.35/speedtest/upload.php" />
<server url="http://st1.tkchopin.pl/speedtest/upload.php" lat="54.6000" lon="18.2333" name="Wejherowo" country="Poland" cc="PL" sponsor="TK Chopin" id="2371"  url2="http://st2.tkchopin.pl/speedtest/upload.php" />
<server url="http://speedtest.kosakowo.net/speedtest/upload.php" lat="54.5894" lon="18.4817" name="Kosakowo" country="Poland" cc="PL" sponsor="Pro-internet sp  z o o" id="3671"  host="speedtest.kosakowo.net:8080" />
<server url="http://speedtest1.interkar.pl/speedtest/upload.php" lat="54.5833" lon="18.4000" name="Rumia" country="Poland" cc="PL" sponsor="Interkar" id="3814"  url2="http://speedtest2.interkar.pl/speedtest/upload.php" host="speedtest1.interkar.pl:8080" />
<server url="http://test.tygrys.net/speedtest/upload.php" lat="54.5833" lon="18.4000" name="Rumia" country="Poland" cc="PL" sponsor="TYGRYS" id="3945"  url2="http://test22.tygrys.net/speedtest/upload.php" />
<server url="http://speedtest.kaluga.u-disk.ru/speedtest/upload.php" lat="54.5333" lon="36.2667" name="Kaluga" country="Russian Federation" cc="RU" sponsor="Rostelecom" id="3521"  url2="http://speedtest2.kaluga.u-disk.ru/speedtest/upload.php" host="speedtest.kaluga.u-disk.ru:8080" />
<server url="http://speedtest.maxnet.org.pl/speedtest/upload.php" lat="54.5000" lon="18.5500" name="Gdynia" country="Poland" cc="PL" sponsor="Maxnet" id="3574"  url2="http://speedtest.maxnet.net.pl/speedtest/upload.php" />
<server url="http://speedtest1.ktvb.ru/speedtest/upload.php" lat="54.4167" lon="86.3000" name="Belovo" country="Russian Federation" cc="RU" sponsor="KTV-Belovo" id="3796"  host="speedtest1.ktvb.ru:8080" />
<server url="http://speedtest1.binz-kabel.de/speedtest/upload.php" lat="54.4000" lon="13.6000" name="Binz" country="Germany" cc="DE" sponsor="KABEL-TV-BINZ" id="3865"  url2="http://speedtest2.binz-kabel.de/speedtest/upload.php" host="speedtest1.binz-kabel.de:8080" />
<server url="http://web.infoseka.lt/tst/speedtest/upload.php" lat="54.4000" lon="24.0500" name="Alytus" country="Lithuania" cc="LT" sponsor="Infoseka" id="387"  url2="http://pserver.infoseka.lt/tst/speedtest/upload.php" />
<server url="http://speedtest.biall.net.pl/speedtest/upload.php" lat="54.3500" lon="18.6667" name="Gdansk" country="Poland" cc="PL" sponsor="BIALL-NET Sp. z o.o." id="3412"  url2="http://speedtest.tx.pl/speedtest/upload.php" host="speedtest.biall.net.pl:8080" />
<server url="http://speedtestnet-pl.kubofonista.net/speedtest/upload.php" lat="54.3500" lon="18.6667" name="Gdansk" country="Poland" cc="PL" sponsor="Kubofonista Network" id="3775"  />
<server url="http://speedtest.net1.co.ni/speedtest/upload.aspx" lat="54.3450" lon="-7.6400" name="Enniskillen" country="Northern Ireland" cc="GB" sponsor="Net1 (NI) Ltd." id="3975"  url2="http://speedtest2.net1.co.ni/speedtest/upload.aspx" host="speedtest.net1.co.ni:8080" />
<server url="http://speed.mv.ru/speedtest/upload.php" lat="54.3249" lon="48.3852" name="Ulyanovsk" country="Russian Federation" cc="RU" sponsor="Rostelecom" id="991"  url2="http://89.239.139.131/speedtest/upload.php" />
<server url="http://speed.netroad.ru/speedtest/upload.php" lat="54.3249" lon="48.3852" name="Ulyanovsk" country="Russian Federation" cc="RU" sponsor="MTS" id="3369"  url2="http://speed2.netroad.ru/speedtest/upload.php" />
<server url="http://speedtest.ulsk.ertelecom.ru/speedtest/upload.php" lat="54.3249" lon="48.3852" name="Ulyanovsk" country="Russian Federation" cc="RU" sponsor="DOM.RU" id="2688"  url2="http://st.ulsk.ertelecom.ru/speedtest/upload.php" />
<server url="http://speedtest.fastcom.ie/speedtest/upload.aspx" lat="54.2667" lon="-8.4833" name="Sligo" country="Ireland" cc="IE" sponsor="Fastcom" id="3647"  url2="http://speedtest1.fastcom.ie/speedtest/upload.aspx" host="speedtest.fastcom.ie:8080" />
<server url="http://speedtest.tkk.net.pl/speedtest/upload.php" lat="54.2000" lon="16.1833" name="Koszalin" country="Poland" cc="PL" sponsor="Tele Kablowa Koszalin" id="994"  />
<server url="http://speedtest.tula.u-disk.ru/speedtest/upload.php" lat="54.2000" lon="37.6167" name="Tula" country="Russian Federation" cc="RU" sponsor="Rostelecom" id="3266"  url2="http://speedtest2.tula.u-disk.ru/speedtest/upload.php" host="speedtest.tula.u-disk.ru:8080" />
<server url="http://speedtest.tula.u-disk.ru/speedtest/upload.php" lat="54.2000" lon="37.6167" name="Tula" country="Russian Federation" cc="RU" sponsor="Rostelecom" id="3297"  url2="http://speedtest2.tula.u-disk.ru/speedtest/upload.php" host="speedtest.tula.u-disk.ru:8080" />
<server url="http://www.radionet-t.ru/speedtest/speedtest/upload.php" lat="54.2000" lon="37.6167" name="Tula" country="Russian Federation" cc="RU" sponsor="Radionet-T" id="3080"  url2="http://tulats.ru/speedtest/speedtest/upload.php" />
<server url="http://speedtest.tula.ertelecom.ru/speedtest/upload.php" lat="54.2000" lon="37.6167" name="Tula" country="Russian Federation" cc="RU" sponsor="DOM.RU" id="2661"  url2="http://st.tula.ertelecom.ru/speedtest/upload.php" />
<server url="http://speedtest.tkk.pl/speedtest/upload.php" lat="54.1833" lon="15.5833" name="Kolobrzeg" country="Poland" cc="PL" sponsor="Telewizja Kablowa" id="1500"  url2="http://194.24.244.8/speedtest/upload.php" />
<server url="http://speedtest.saransk.u-disk.ru/speedtest/upload.php" lat="54.1833" lon="45.1833" name="Saransk" country="Russian Federation" cc="RU" sponsor="Rostelecom" id="4186"  url2="http://speedtest2.saransk.u-disk.ru/speedtest/upload.php" host="speedtest.saransk.u-disk.ru:8080" />
<server url="http://stpub1.sar.starttelecom.ru/speedtest/upload.php" lat="54.1833" lon="45.1833" name="Saransk" country="Russian Federation" cc="RU" sponsor="MTT.DOM" id="4298"  url2="http://stpub2.sar.starttelecom.ru/speedtest/upload.php" host="stpub1.sar.starttelecom.ru:8080" />
<server url="http://speedtest.e-mordovia.ru/speedtest/upload.php" lat="54.1833" lon="45.1833" name="Saransk" country="Russian Federation" cc="RU" sponsor="SUE РМ" id="3901"  url2="http://speed.e-mordovia.ru/speedtest/upload.php" host="speedtest.e-mordovia.ru:8080" />
<server url="http://speedtest.dartel.ru/upload.php" lat="54.1833" lon="45.1833" name="Saransk" country="Russian Federation" cc="RU" sponsor="DARTEL" id="2677"  />
<server url="http://ktv-net.ru/speedtest/upload.php" lat="54.1833" lon="45.1833" name="Saransk" country="Russian Federation" cc="RU" sponsor="Contact-TV inc." id="2973"  url2="http://speed.hosting.contact-tv.ru/speedtest/upload.php" />
<server url="http://speedtest.manx.net/speedtest/upload.php" lat="54.1675" lon="-4.4824" name="Douglas" country="Isle of Man" cc="IM" sponsor="Manx Telecom" id="3778"  host="speedtest.manx.net:8080" />
<server url="http://speedtest1.wimanx.com/speedtest/upload.php" lat="54.1675" lon="-4.4824" name="Douglas" country="Isle of Man" cc="IM" sponsor="Wi-Manx Limited" id="3183"  url2="http://speedtest2.wimanx.com/speedtest/upload.php" host="speedtest1.wimanx.com:8080" />
<server url="http://host1.speedtest.pwsz.elblag.pl/speedtest/upload.php" lat="54.1667" lon="19.4000" name="Elblag" country="Poland" cc="PL" sponsor="Panstwowa" id="3779"  host="host1.speedtest.pwsz.elblag.pl:8080" />
<server url="http://www.lannet.pl/mini/speedtest/upload.php" lat="54.1167" lon="20.5833" name="Lidzbark Warmiński" country="Poland" cc="PL" sponsor="Lannet" id="3494"  url2="http://www.lanet.pl/mini/speedtest/upload.php" />
<server url="http://speedtest.lasnet.pl/speedtest/upload.php" lat="54.1167" lon="20.5833" name="Lidzbark Warminski" country="Poland" cc="PL" sponsor="Lasnet Usługi Komputerowe Robert Gulbinowicz" id="3760"  />
<server url="http://www.lannet.org/speed/speedtest/upload.php" lat="54.1000" lon="22.9333" name="Suwalki" country="Poland" cc="PL" sponsor="LanNet Suwałki" id="3689"  host="www.lannet.org:8080" />
<server url="http://speed2.sejnet.pl/speedtest/upload.php" lat="54.1000" lon="23.3500" name="Sejny" country="Poland" cc="PL" sponsor="Sejnet Rafał Sławiński" id="4395"  url2="http://speed1.sejnet.pl/speedtest/upload.php" host="speed2.sejnet.pl:8080" />
<server url="http://speedtest1.rgtsparus.ru/speedtest/upload.php" lat="54.0667" lon="44.9333" name="Ruzayevka" country="Russian Federation" cc="RU" sponsor="OOO RGTS &quot;Parus&quot;" id="2744"  url2="http://speedtest2.rgtsparus.ru/speedtest/upload.php" />
<server url="http://84.19.126.16/speedtest/upload.php" lat="54.0640" lon="-2.8786" name="Morecambe" country="Great Britain" cc="GB" sponsor="Smallworld Media" id="1518"  host="84.19.126.16:8080" />
<server url="http://speedtest.luns.net.uk/speedtest/upload.php" lat="54.0470" lon="-2.8010" name="Lancaster" country="Great Britain" cc="GB" sponsor="LUNS Ltd." id="2048"  url2="http://speedtest2.luns.net.uk/speedtest/upload.php" />
<server url="http://speedtest.net1.ie/speedtest/upload.php" lat="54.0070" lon="-6.4049" name="Dundalk" country="Ireland" cc="IE" sponsor="Adelphi Net1 Ltd" id="1459"  />
<server url="http://speedtest.btk.net.pl/speedtest/upload.php" lat="54.0000" lon="15.9833" name="Bialogard" country="Poland" cc="PL" sponsor="BSM" id="3396"  url2="http://speedtest2.btk.net.pl/speedtest/upload.php" />
<server url="http://speedtest.bytemark.co.uk/speedtest/upload.php" lat="53.9583" lon="-1.0803" name="York" country="Great Britian" cc="GB" sponsor="Bytemark Hosting" id="4068"  url2="http://speedtest.dh.bytemark.co.uk/speedtest/upload.php" host="speedtest.bytemark.co.uk:8080" />
<server url="http://speed.roslavl-sp.ru/speedtest/speedtest/upload.php" lat="53.9528" lon="32.8639" name="Roslavl" country="Russian Federation" cc="RU" sponsor="Ltd. Server-plus" id="3181"  url2="http://speed1.roslavl-sp.ru/speedtest/speedtest/upload.php" />
<server url="http://speedtest.uznam.net.pl/speedtest/upload.php" lat="53.9091" lon="14.2400" name="Swinoujscie" country="Poland" cc="PL" sponsor="AC Systemy Komputerowe" id="2950"  url2="http://speedtest.acsystemy.pl/speedtest/upload.php" host="speedtest.uznam.net.pl:8080" />
<server url="http://test.flynet.by/speedtest/upload.php" lat="53.9000" lon="27.5667" name="Minsk" country="Belarus" cc="BY" sponsor="FLYNET.BY" id="3326"  url2="http://test2.flynet.by/speedtest/upload.php" host="test.flynet.by:8080" />
<server url="http://speedtest1.mts.by/speedtest/upload.php" lat="53.9000" lon="27.5667" name="Minsk" country="Belarus" cc="BY" sponsor="Mobile TeleSystems JLLC" id="4268"  url2="http://speedtest2.mts.by/speedtest/upload.php" host="speedtest1.mts.by:8080" />
<server url="http://test.byfly.by/speedtest/upload.php" lat="53.9000" lon="27.5667" name="Minsk" country="Belarus" cc="BY" sponsor="BYFLY" id="4426"  url2="http://test2.byfly.by/speedtest/upload.php" host="test.byfly.by:8080" />
<server url="http://speedtest1.velcom.by/speedtest/upload.php" lat="53.9000" lon="27.5667" name="Minsk" country="Belarus" cc="BY" sponsor="FE VELCOM" id="4521"  url2="http://speedtest2.velcom.by/speedtest/upload.php" host="speedtest1.velcom.by:8080" />
<server url="http://speedtest1.unet.by/speedtest/upload.php" lat="53.9000" lon="27.5667" name="Minsk" country="Belarus" cc="BY" sponsor="UNET.BY" id="3704"  host="speedtest1.unet.by:8080" />
<server url="http://test.byfly.by/speedtest/upload.php" lat="53.9000" lon="27.5667" name="Minsk" country="Belarus" cc="BY" sponsor="MGTS" id="1119"  onmap="0" url2="http://86.57.151.26/speedtest/upload.php" host="test.byfly.by:8080" />
<server url="http://speedtest.infonet.by/speedtest/upload.php" lat="53.9000" lon="27.5667" name="Minsk" country="Belarus" cc="BY" sponsor="Belinfonet Ltd" id="3777"  onmap="0" />
<server url="http://speedtest1.air-net.gda.pl/speedtest/upload.php" lat="53.8500" lon="18.0167" name="Przyjazn" country="Poland" cc="PL" sponsor="AIR-NET Sp. z o.o." id="4120"  url2="http://speedtest2.air-net.gda.pl/speedtest/upload.php" host="speedtest1.air-net.gda.pl:8080" />
<server url="http://speedtest.csb-net.de/speedtest/upload.php" lat="53.8167" lon="10.3667" name="Bad Oldesloe" country="Germany" cc="DE" sponsor="C&amp;S Breitband GmbH" id="3537"  url2="http://speedtest.vsm.sh/speedtest/upload.php" host="speedtest.csb-net.de:8080" />
<server url="http://speedtest.blakeway.me.uk/speedtest/upload.aspx" lat="53.8100" lon="-1.5500" name="Leeds" country="Great Britain" cc="GB" sponsor="Webfusion" id="3519"  url2="http://speedtest.haptech.co.uk/speedtest/upload.aspx" host="speedtest.blakeway.me.uk:8080" />
<server url="http://speedtest1.danceukradio.co.uk/speedtest/upload.php" lat="53.8100" lon="-1.5500" name="Leeds" country="Great Britain" cc="GB" sponsor="DanceUKRadio" id="2781"  url2="http://speedtest2.danceukradio.co.uk/speedtest/upload.php" />
<server url="http://leeds-uk-speed1.firstnetserv.co.uk/speedtest/upload.php" lat="53.8100" lon="-1.5500" name="Leeds" country="Great Britain" cc="GB" sponsor="Black Fibre Networks Ltd" id="2363"  url2="http://leeds-uk-speed2.firstnetserv.co.uk/speedtest/upload.php" host="leeds-uk-speed1.firstnetserv.co.uk:8080" />
<server url="http://185.15.133.201/test2/speedtest/upload" lat="53.8003" lon="17.2531" name="Przechlewo" country="Poland" cc="PL" sponsor="PHU BARNET" id="4121"  url2="http://185.15.133.201/test3/speedtest/upload.php" />
<server url="http://speedtest.boundlessbroadband.net/speedtest/upload.php" lat="53.7590" lon="-2.6990" name="Preston" country="Great Britain" cc="GB" sponsor="Boundless Comms" id="2262"  url2="http://speedtest2.boundlessbroadband.net/speedtest/upload.php" />
<server url="http://speed-nkz.myttk.ru/speedtest/upload.php" lat="53.7500" lon="87.1000" name="Novokuznetsk" country="Russian Federation" cc="RU" sponsor="JSC Zap-Sib TransTeleCom" id="1831"  host="speed-nkz.myttk.ru:8080" />
<server url="http://speedtest.novokuznetsk.u-disk.ru/speedtest/upload.php" lat="53.7500" lon="87.1167" name="Novokuznetsk" country="Russian Federation" cc="RU" sponsor="Rostelecom" id="4284"  url2="http://speedtest2.novokuznetsk.u-disk.ru/speedtest/upload.php" host="speedtest.novokuznetsk.u-disk.ru:8080" />
<server url="http://speedtest.hutor.ru/speedtest/upload.php" lat="53.7500" lon="87.1167" name="Novokuznetsk" country="Russian Federation" cc="RU" sponsor="RDTC" id="1661"  url2="http://62.231.190.47/speedtest/upload.php" />
<server url="http://www.speedtest.karoo.co.uk/speedtest/upload.php" lat="53.7443" lon="-0.3325" name="Kingston Upon Hull" country="Great Britain" cc="GB" sponsor="Kingston Communications" id="1426"  host="fibretest.kc.kcom.com:8080" />
<server url="http://37.152.41.13/speedtest/upload.php" lat="53.7443" lon="0.3325" name="Kingston upon Hull" country="Great Britain" cc="GB" sponsor="Purebroadband Limited" id="4258"  url2="http://37.152.41.14/speedtest/upload.php" host="37.152.41.13:8080" />
<server url="http://speedtest.abakan.u-disk.ru/speedtest/upload.php" lat="53.7167" lon="91.4167" name="Abakan" country="Russia" cc="RU" sponsor="Rostelecom" id="4479"  url2="http://speedtest2.abakan.u-disk.ru/speedtest/upload.php" host="speedtest.abakan.u-disk.ru:8080" />
<server url="http://speedtest.abakannet.ru/speedtest/upload.php" lat="53.7167" lon="91.4167" name="Abakan" country="Russian Federation" cc="RU" sponsor="OOO &quot;Set&quot; (abakannet.ru)" id="3897"  url2="http://speedtest2.abakannet.ru/speedtest/upload.php" host="speedtest.abakannet.ru:8080" />
<server url="http://wsteam.ru/speedtest/upload.php" lat="53.7167" lon="91.4167" name="Abakan" country="Russian Federation" cc="RU" sponsor="Whistlers Team" id="4334"  url2="http://wsthdd.ru/speedtest/upload.php" host="wsteam.ru:8080" />
<server url="http://speedtest.alfatelplus.ru/speedtest/upload.php" lat="53.7167" lon="91.4167" name="Abakan" country="Russian Federation" cc="RU" sponsor="OOO Alfatel plus" id="4366"  url2="http://speedtest2.alfatelplus.ru/speedtest/upload.php" host="speedtest.alfatelplus.ru:8080" />
<server url="http://st-zarinsk.dianet.info/speedtest/upload.php" lat="53.7089" lon="84.9672" name="Zarinsk" country="Russian Federation" cc="RU" sponsor="Dianet" id="1535"  />
<server url="http://speedtest.wtnet.de/speedtest/upload.php" lat="53.7064" lon="10.0103" name="Norderstedt" country="Germany" cc="DE" sponsor="wilhelm.tel" id="4087"  url2="http://pingtest.wtnet.de/speedtest/upload.php" host="speedtest.wtnet.de:8080" />
<server url="http://speed1.chojnet.pl/speedtest/upload.php" lat="53.7000" lon="17.5500" name="Chojnice" country="Poland" cc="PL" sponsor="Chojnet" id="3618"  url2="http://speed2.chojnet.pl/speedtest/upload.php" host="speed1.chojnet.pl:8080" />
<server url="http://speedtest.rikt.ru/speedtest/upload.php" lat="53.6833" lon="88.0500" name="Mezhdurechensk" country="Russian Federation" cc="RU" sponsor="OAO &quot;RIKT&quot;" id="3277"  url2="http://speedtest2.rikt.ru/speedtest/upload.php" />
<server url="http://bscnetwork.net/speedtest/speedtest/upload.php" lat="53.6454" lon="-3.0083" name="Southport" country="Great Britian" cc="GB" sponsor="Blue Sky Network Ltd" id="4127"  url2="http://bssecure.net/speedtest/speedtest/upload.php" host="bscnetwork.net:8080" />
<server url="http://speedtest2.daspc.de/speedtest/upload.php" lat="53.6333" lon="11.4167" name="Schwerin" country="Germany" cc="DE" sponsor="BillHOST.de IT Systeme" id="1516"  />
<server url="http://sl-02.wemacom.de/speedtest/upload.php" lat="53.6333" lon="11.4167" name="Schwerin" country="Germany" cc="DE" sponsor="WEMACOM Telekommunikation" id="4314"  url2="http://mvtel.de/speedtest/upload.php" />
<server url="http://1str.net/mini1/speedtest/upload.php" lat="53.6333" lon="55.9500" name="Sterlitamak" country="Russian Federation" cc="RU" sponsor="1str" id="2083"  url2="http://speedtest.1str.net/speedtest/upload.php" />
<server url="http://speedtest.m-networks.pl/speedtest/upload.php" lat="53.6000" lon="17.8500" name="Tuchola" country="Poland" cc="PL" sponsor="M-Networks Sp. z o.o." id="4083"  url2="http://test1.my-yo.ru/speedtest/upload.php" />
<server url="http://speedtest1.telbiur.com.pl/speedtest/upload.php" lat="53.5667" lon="20.9833" name="Szczytno" country="Poland" cc="PL" sponsor="Telbiur Hurt-Detal-Usługi Marzena Dołżańska" id="3507"  url2="http://speedtest2.telbiur.com.pl/speedtest/upload.php" />
<server url="http://speedtest.studiofunk.de/speedtest/upload.php" lat="53.5653" lon="10.0014" name="Hamburg" country="Germany" cc="DE" sponsor="Studio Funk GmbH &amp; Co. KG" id="2398"  url2="http://speedtest2.studiofunk.de/speedtest/upload.php" host="speedtest.studiofunk.de:8080" />
<server url="http://edmonton.speedtest.telus.com/speedtest/upload.jsp" lat="53.5472" lon="-113.5006" name="Edmonton, AB" country="Canada" cc="CA" sponsor="Telus" id="3050"  host="edmonton.speedtest.telus.com:8080" />
<server url="http://speedtest.tera-byte.com/speedtest/upload.php" lat="53.5472" lon="-113.5006" name="Edmonton, AB" country="Canada" cc="CA" sponsor="Tera-byte Dot Com Inc" id="1051"  url2="http://216.234.191.173/speedtest/upload.php" host="speedtest.tera-byte.com:8080" />
<server url="http://speedtest.ed.shawcable.net/speedtest/upload.php" lat="53.5472" lon="-113.5006" name="Edmonton, AB" country="Canada" cc="CA" sponsor="Shaw Communications" id="4242"  url2="http://speedtest2.ed.shawcable.net/speedtest/upload.php" host="speedtest.ed.shawcable.net:8080" />
<server url="http://speedtest.tvsm.pl/mini/speedtest/upload.php" lat="53.4833" lon="18.7667" name="Grudziadz" country="Poland" cc="PL" sponsor="Spółdzielnia Mieszkaniowa w Grudziądzu" id="3665"  />
<server url="http://speedtest.tlt.100megabit.ru/speedtest/upload.php" lat="53.4833" lon="49.5167" name="Tolyatti" country="Russian Federation" cc="RU" sponsor="AIST" id="3604"  url2="http://speedtest.tlt.aist.net.ru/speedtest/upload.php" host="speedtest.tlt.100megabit.ru:8080" />
<server url="http://speed.aido.ru/speedtest/upload.php" lat="53.4833" lon="49.5167" name="Tolyatti" country="Russian Federation" cc="RU" sponsor="Aido Telecom" id="3621"  url2="http://speed2.aido.ru/speedtest/upload.php" host="speed.aido.ru:8080" />
<server url="http://speedtest.totel.ru/speedtest/upload.php" lat="53.4833" lon="49.5167" name="Tolyatti" country="Russian Federation" cc="RU" sponsor="Togliatti Telecom" id="4271"  url2="http://speedtest-2.totel.ru/speedtest/upload.php" host="speedtest.totel.ru:8080" />
<server url="http://speedtest.tnp.net.uk/speedtest/upload.php" lat="53.4800" lon="-2.2400" name="Manchester" country="Great Britain" cc="GB" sponsor="TNP Ltd." id="3504"  url2="http://speedtest2.tnp.net.uk/speedtest/upload.php" host="speedtest.tnp.net.uk:8080" />
<server url="http://speedtest.mgn.ru/speedtest/upload.php" lat="53.4609" lon="59.0831" name="Magnitogorsk" country="Russian Federation" cc="RU" sponsor="Maginfo" id="2037"  url2="http://st.mgn.ru/speedtest/upload.php" host="speedtest.mgn.ru:8080" />
<server url="http://speedtest.mgn.ertelecom.ru/speedtest/upload.php" lat="53.4609" lon="59.0831" name="Magnitogorsk" country="Russian Federation" cc="RU" sponsor="DOM.RU" id="2699"  url2="http://st.mgn.ertelecom.ru/speedtest/upload.php" />
<server url="http://speedtest-magnitogorsk-eine.is74.ru/speedtest/upload.php" lat="53.4609" lon="59.0831" name="Magnitogorsk" country="Russian Federation" cc="RU" sponsor="JSC Intersvyaz" id="2721"  url2="http://speedtest-magnitogorsk-zwei.is74.ru/speedtest/upload.php" />
<server url="http://speedtest.svtk.ru/speedtest/upload.php" lat="53.4609" lon="59.0831" name="Magnitogorsk" country="Russian Federation" cc="RU" sponsor="JSC SVYAZTELEKOM" id="2806"  url2="http://speedtest.magnitka.ru/speedtest/upload.php" host="speedtest.svtk.ru:8080" />
<server url="http://speedtest1.magnitogorsk.multinex.ru/speedtest/upload.php" lat="53.4609" lon="59.0831" name="Magnitogorsk" country="Russian Federation" cc="RU" sponsor="MTS" id="1892"  url2="http://speedtest2.magnitogorsk.multinex.ru/speedtest/upload.php" />
<server url="http://noc.x-com.pl/mini/speedtest/upload.php" lat="53.4333" lon="14.5333" name="Szczecin" country="Poland" cc="PL" sponsor="X-Com Partners" id="2209"  url2="http://www.noc.x-com.pl/mini/speedtest/upload.php" host="noc.x-com.pl:8080" />
<server url="http://speedtest.vspace.pl/speedtest/upload.php" lat="53.4333" lon="14.5333" name="Szczecin" country="Poland" cc="PL" sponsor="Virtual Space" id="4410"  url2="http://speedtest.pogodno.net/speedtest/upload.php" host="speedtest.vspace.pl:8080" />
<server url="http://www.speedtest.wzieu.pl/speedtest/upload.php" lat="53.4333" lon="14.5333" name="Szczecin" country="Poland" cc="PL" sponsor="WZiEU US  MAN Szczecin" id="1481"  />
